stop_code,BS_ID,STOP_NAME,STOP_LAT,STOP_LONG,max_ons,log_max_ons
10390,390,19th Ave&Holloway Ave NE-FS/BZ,37.72119,-122.4751,165,100..200
13016,3016,3rd St&Mission Rock St S-FS/SB,37.77262,-122.38979,6,5..10
13018,3018,Bacon St&San Bruno Ave N-MB/BZ,37.72774,-122.40324,39,20..50
13019,3019,Bacon St&San Bruno Ave E-FS/BZ,37.72765,-122.40327,206,200..500
13020,3020,Bacon St&Somerset St NE-NS,37.72667,-122.40746,2,2..5
13021,3021,Bacon St&Somerset St SW-NS,37.72654,-122.40766,3,2..5
13023,3023,Baker Beach Parking Lot SW-FS/SB,37.79025,-122.48226,12,10..20
13024,3024,Baker St&Greenwich St SE-NS,37.79761,-122.44569,1,0..2
13031,3031,Bay St&Midway St SE-FS/SB,37.80609,-122.40916,29,20..50
13072,3072,Broderick St&Bay St SE-NS/SB,37.80154,-122.4448,0,0..2
13074,3074,Broderick St&Beach St SE-NS/SB,37.80342,-122.44518,0,0..2
13075,3075,Broderick St&Francisco St SE-NS/SB,37.80062,-122.4446,1,0..2
13076,3076,Broderick St&Jefferson St SE-NS/PS,37.80434,-122.44536,2,2..5
13077,3077,Broderick St&North Point St SE-NS/PS,37.80248,-122.44498,1,0..2
13082,3082,Broadway&Columbus Ave SE-FS/BZ,37.79783,-122.40635,27,20..50
13084,3084,Broadway&Montgomery St SW-NS/BB,37.79813,-122.40396,20,20..50
13085,3085,Broadway&Steiner St NE-NS/PS,37.79413,-122.43644,1,0..2
13086,3086,Broadway&Steiner St SE-FS/PS,37.79406,-122.43628,4,2..5
13087,3087,Broadway&Stockton St SE-FS/BZ,37.79759,-122.40829,54,50..100
13089,3089,Beale St&Mission St W-MB/BZ,37.79194,-122.39688,26,20..50
13092,3092,Beach St&Mason St SW-NS/PS,37.80741,-122.41413,9,5..10
13093,3093,Beach St&Polk St N-MB/BZ,37.80638,-122.4232,52,50..100
13095,3095,Beach St&Stockton St SW-NS/PS,37.80784,-122.41081,3,2..5
13103,3103,3rd St&20th St NE-FS/FL,37.76079,-122.38846,35,20..50
13104,3104,3rd St&20th St NW-NS/SB,37.76059,-122.3887,8,5..10
13107,3107,3rd St&23rd St NE-FS/BZ,37.75569,-122.3879,4,2..5
13108,3108,3rd St&23rd St SW-FS/SB,37.75506,-122.3881,4,2..5
13113,3113,3rd St&Bayview St SW-FS/BB,37.7322,-122.39173,5,5..10
13114,3114,3rd St&Brannan St. E-MB/BB,37.77929,-122.39319,132,100..200
13115,3115,3rd St&Carroll Ave N-NS/BZ,37.72567,-122.3943,1,0..2
13116,3116,3rd St&Carroll Ave S-NS/SB,37.7253,-122.3942,8,5..10
13123,3123,3rd St&Evans Ave SW-FS/SB,37.74244,-122.38815,18,10..20
13124,3124,3rd St&Folsom St N-FS/BZ,37.7842,-122.39933,196,100..200
13127,3127,3rd St&Hudson Ave S-NS/BZ,37.74012,-122.3887,23,20..50
13129,3129,3rd St&Innes Ave SW-FS/BZ,37.73932,-122.38926,15,10..20
13134,3134,3rd St&La Salle Ave NE-FS/BB,37.73721,-122.3898,22,20..50
13135,3135,3rd St&Kirkwood Ave SW-FS/BB,37.73793,-122.38962,11,10..20
13136,3136,3rd St&Mission St NE-FS/BZ,37.78637,-122.40211,442,200..500
13141,3141,3rd St&Palou Ave E-FS/BZ Cut-out,37.73409,-122.39093,345,200..500
13143,3143,3rd St&Oakdale Ave SW-FS/BB,37.73479,-122.39072,36,20..50
13144,3144,3rd St&Perry (Harrison) St E-NS/BZ,37.78211,-122.39681,84,50..100
13145,3145,3rd St&Revere Ave S-NS/BB,37.73225,-122.39146,9,5..10
13146,3146,3rd St&Salinas Ave NW-NS/SB,37.72086,-122.39646,1,0..2
13149,3149,3rd St&Van Dyke Ave S-NS/SB,37.72924,-122.39259,9,5..10
13150,3150,3rd St&Williams Ave SW-FS/BZ,37.72917,-122.39278,7,5..10
13153,3153,Third Street&Mission Rock St. NE-FS,37.77297,-122.38969,6,5..10
13156,3156,4th St&Brannan St S-FS/PS,37.77831,-122.3966,3,2..5
13158,3158,4th St&Folsom St S-FS/BZ,37.7818,-122.40101,53,50..100
13159,3159,4th St&Howard St S-FS/BZ,37.78304,-122.40255,44,20..50
13160,3160,4th St&Mission St OB S-FS/BZ,37.78426,-122.40412,170,100..200
13161,3161,4th St&Market St S-FS/BB,37.78553,-122.40568,508,500..1000
13164,3164,4th St&Townsend St S-FS/BZ,37.77689,-122.3949,5,5..10
13177,3177,6th Ave&Balboa St SE-NS/BZ,37.77715,-122.46392,21,20..50
13178,3178,6th Ave&Balboa St SW-FS/BZ,37.77699,-122.46409,27,20..50
13180,3180,6th Ave&Clement St NE-FS/BZ,37.78305,-122.46438,14,10..20
13181,3181,6th Ave&Clement St NW-NS/BZ,37.78303,-122.46453,159,100..200
13183,3183,6th Ave & Fulton St,37.77381,-122.46375,4,2..5
13184,3184,6th Ave&Geary Blvd SE-NS/BZ,37.78088,-122.46418,8,5..10
13185,3185,6th Ave&Geary Blvd SW-FS/BZ,37.78077,-122.46435,183,100..200
13188,3188,1697 7th Ave SW-FS/SB,37.7566,-122.46374,1,0..2
13189,3189,7th Ave&Moraga St NE-FS/PS,37.75677,-122.46357,3,2..5
13191,3191,7th St&Brannan St N-FS/BZ,37.77327,-122.40337,20,20..50
13192,3192,7th St&Folsom St N-FS/SI,37.77686,-122.4079,24,20..50
13193,3193,7th St&Harrison St N-FS/BZ,37.77573,-122.40646,29,20..50
13194,3194,7th St&Howard St E-NS/SI,37.77794,-122.40922,41,20..50
13195,3195,7th St&Mission St NE-FS/BZ,37.77933,-122.41103,52,50..100
13196,3196,7th St&Market St S-NS/SI,37.78031,-122.4124,95,50..100
13201,3201,8th Ave&Fulton St NE-FS/BZ,37.77364,-122.46581,28,20..50
13202,3202,8th Ave&Fulton St NW-NS/BZ,37.77348,-122.46598,42,20..50
13203,3203,8th St&Brannan St W-FS/BI,37.77118,-122.40539,3,2..5
13204,3204,8th St&Bryant St W-NS/BZ,37.77254,-122.40713,7,5..10
13205,3205,8th St&Folsom St S-FS/BZ,37.77477,-122.40992,11,10..20
13206,3206,8th St&Harrison St S-FS/BI,37.77354,-122.40838,10,10..20
13208,3208,8th St&Mission St S-FS/BZ,37.77724,-122.41303,69,50..100
13209,3209,8th St & Market St S-FS/BZ,37.7785,-122.4146,96,50..100
13211,3211,9th Ave&Irving St NE-FS/BZ,37.76429,-122.46624,53,50..100
13213,3213,9th Ave&Irving St SW-FS/BZ,37.7638,-122.46639,43,20..50
13214,3214,9th Ave&Judah St SE-NS/BZ,37.76209,-122.46608,75,50..100
13215,3215,9th Ave&Judah St SW-FS/BZ,37.76204,-122.46624,88,50..100
13216,3216,9th Ave&Kirkham St NW-NS/BZ,37.76041,-122.46615,7,5..10
13217,3217,9th Ave&Kirkham St SE-NS/BZ,37.76024,-122.46595,10,10..20
13218,3218,9th Ave&Lawton St NW-NS/RC,37.75853,-122.46602,11,10..20
13220,3220,9th Ave&Lincoln Way SE-NS/BZ,37.76585,-122.46635,44,20..50
13221,3221,9th Ave&Lincoln Way SW-FS/BZ,37.76569,-122.46652,52,50..100
13229,3229,9th St&Avenue H SW-NS/SB,37.8252,-122.37006,3,2..5
13235,3235,11th St&Bryant St N-FS/BZ,37.76981,-122.4113,43,20..50
13238,3238,11th St&Harrison St N-FS/BZ,37.77069,-122.41253,220,200..500
13239,3239,11th St&Harrison St S-FS/BZ,37.77056,-122.41249,91,50..100
13240,3240,11th St&Howard St N-FS/BZ,37.77333,-122.41573,33,20..50
13241,3241,11th St&Howard St S-FS/BZ,37.77283,-122.41538,25,20..50
13243,3243,11th St&Mission St S-FS/BZ,37.77404,-122.41689,92,50..100
13244,3244,11th St&Market St E-NS/SB,37.7755,-122.41852,27,20..50
13245,3245,11th St&Market St S-FS/BZ,37.77537,-122.41858,180,100..200
13253,3253,14th St&Alpine Ter NE-NS/SB,37.7673,-122.43721,,
13254,3254,14th St&Church St NW-FS/BZ,37.76777,-122.42909,,
13255,3255,14th St&Church St SW-NS/BZ,37.76767,-122.42913,,
13256,3256,14th St&Castro St NW-FS/SB,37.76738,-122.43584,,
13257,3257,14th St&Castro St SW-NS/SB,37.76728,-122.43578,,
13258,3258,14th St&Noe St NE-NS/PS,37.76751,-122.43327,,
13259,3259,14th St&Noe St SW-NS/PS,37.7674,-122.43356,,
13260,3260,14th St&Sanchez St NE-NS/PS,37.76767,-122.43111,,
13261,3261,14th St&Sanchez St SW-NS/PS,37.76754,-122.43128,,
13266,3266,15th Ave&Taraval St SE-NS/PS,37.74312,-122.4713,13,10..20
13267,3267,15th Ave&Taraval St SW-FS/PS,37.74307,-122.47141,41,20..50
13281,3281,16th St&Bryant St N-MB/BZ,37.76566,-122.41029,207,200..500
13282,3282,16th St&Bryant St SE-FS/BZ,37.7656,-122.41041,25,20..50
13283,3283,16th St&Church St NE-NS/BZ,37.76458,-122.42852,21,20..50
13284,3284,16th St&Dolores St NE-NS/PS,37.76473,-122.42616,39,20..50
13285,3285,16th St&Dolores St SW-NS/PS,37.76458,-122.42658,46,20..50
13286,3286,16th St&Guerrero St NE-NS/BZ,37.76485,-122.42396,48,20..50
13287,3287,16th St&Guerrero St SW-NS/BZ,37.76472,-122.42426,21,20..50
13288,3288,16th St&Harrison St NE-NS/BZ,37.76552,-122.41298,74,50..100
13289,3289,16th St&Harrison St SW-NS/BZ,37.76538,-122.41329,16,10..20
13291,3291,16th St&Mission St NE-NS/BZ,37.76515,-122.41961,797,500..1000
13292,3292,16th St&Mission St SE-FS/BZ,37.76502,-122.41928,45,20..50
13293,3293,16th St&Mission St SW-NS/BZ,37.76498,-122.41984,567,500..1000
13295,3295,16th St&Potrero Ave NW-FS/BZ,37.7658,-122.40762,335,200..500
13296,3296,16th St&Potrero Ave SW-NS/BZ,37.76576,-122.40761,71,50..100
13297,3297,16th St&San Bruno Ave SE-FS/BZ,37.76586,-122.40552,8,5..10
13299,3299,16th St&Shotwell St SE-FS/BZ,37.76522,-122.41605,58,50..100
13300,3300,16th St&Valencia St NE-NS/BZ,37.76499,-122.42175,177,100..200
13301,3301,16th St&Valencia St SW-NS/BZ,37.76485,-122.42206,68,50..100
13302,3302,16th St&Vermont St NW-FS/BZ,37.76604,-122.40469,43,20..50
13307,3307,17th St&Belvedere St NE-NS/PS,37.76176,-122.44768,,
13309,3309,17th St&Clayton St NE-NS/PS,37.76185,-122.4467,,
13310,3310,17th St&Cole St NE-NS/PS,37.76168,-122.44898,,
13314,3314,17th St&Diamond St NW-FS/SB,37.76242,-122.43749,,
13322,3322,18th St&Church St NE-NS/BZ,37.76137,-122.4282,27,20..50
13323,3323,18th St&Church St SE-FS/BZ,37.76125,-122.42814,20,20..50
13325,3325,18th St&Castro St NW-FS/BZ,37.76095,-122.43515,39,20..50
13326,3326,18th St&Castro St SE-FS/BZ,37.76085,-122.43484,61,50..100
13327,3327,18th St&Danvers St NW-FS/BZ,37.76036,-122.44354,1,0..2
13328,3328,18th St&Danvers St SW-NS/BZ,37.76024,-122.44349,5,5..10
13329,3329,18th St&Diamond St SW-NS/BZ,37.7607,-122.43729,9,5..10
13330,3330,18th St&Dolores St NW-FS/BZ,37.76149,-122.42624,12,10..20
13331,3331,18th St&Dolores St SE-FS/BZ,37.76139,-122.42593,5,5..10
13332,3332,18th St&Eureka St NE-NS/BZ,37.76077,-122.43815,8,5..10
13333,3333,18th St&Guerrero St NW-FS/BZ,37.76162,-122.42396,16,10..20
13334,3334,18th St&Guerrero St SE-FS/BZ,37.76152,-122.42365,12,10..20
13335,3335,18th St&Hattie St NW-FS/BZ,37.76059,-122.44109,3,2..5
13336,3336,18th St&Hattie St SE-FS/BZ,37.76049,-122.44078,5,5..10
13338,3338,18th St&Mission St NW-FS/BZ,37.7619,-122.41951,66,50..100
13339,3339,18th St&Market St NE-NS/PS,37.75979,-122.44445,1,0..2
13340,3340,18th St&Noe St NE-NS/PS,37.76109,-122.43269,5,5..10
13341,3341,18th St&Noe St SW-NS/PS,37.76096,-122.43291,7,5..10
13344,3344,18th St&Sanchez St NE-NS/BZ,37.76123,-122.43046,11,10..20
13345,3345,18th St&Sanchez St SW-NS/BZ,37.76109,-122.43068,5,5..10
13348,3348,18th St&Valencia St NW-FS/BZ,37.76176,-122.42173,32,20..50
13349,3349,18th St&Valencia St SE-FS/BZ,37.76166,-122.42142,17,10..20
13354,3354,19th Ave&Eucalyptus Dr NW-NS-BZ,37.73118,-122.47496,9,5..10
13355,3355,19th Ave&Eucalyptus Dr SE-NS/BZ,37.73097,-122.47472,28,20..50
13356,3356,19th Ave&Holloway Ave NW-NS/SB,37.72111,-122.4753,69,50..100
13357,3357,19th Ave&Holloway Ave SE-NS/SB,37.72094,-122.475,11,10..20
13359,3359,19th Ave&Irving St NW-NS/BZ,37.76368,-122.47731,108,100..200
13360,3360,19th Ave&Irving St SE-NS/BZ,37.76343,-122.47704,38,20..50
13361,3361,19th Ave&Junipero Serra Blvd E-NS,37.71689,-122.47228,13,10..20
13362,3362,19th Ave&Junipero Serra Blvd N-FS ,37.71805,-122.47318,42,20..50
13363,3363,19th Ave&Junipero Serra Blvd W-NS,37.71732,-122.47297,15,10..20
13364,3364,19th Ave&Judah St SE-NS/BZ,37.7616,-122.47693,39,20..50
13365,3365,19th Ave&Judah St SW-FS/BZ,37.7614,-122.47711,119,100..200
13368,3368,19th Ave&Lawton St SE-NS/BZ,37.75786,-122.47654,14,10..20
13369,3369,19th Ave&Lawton St SW-FS/BZ,37.75789,-122.47678,21,20..50
13371,3371,19th Ave&Lincoln Way SW-FS/BZ,37.76538,-122.4774,35,20..50
13374,3374,19th Ave&Noriega St SE-NS/BZ,37.75412,-122.47629,48,20..50
13375,3375,19th Ave&Noriega St SW-FS/BZ,37.75392,-122.47653,50,50..100
13376,3376,19th Ave&N Randolph St NW-NS/PS,37.7162,-122.47167,21,20..50
13379,3379,19th Ave&Ortega St NE-FS/BZ,37.75272,-122.47619,37,20..50
13380,3380,19th Ave&Ortega St SW-FS/BZ,37.75206,-122.4764,19,10..20
13383,3383,19th Ave&Quintara St SE-NS/BZ,37.74853,-122.4759,39,20..50
13384,3384,19th Ave&Quintara St SW-FS/BZ,37.7483,-122.47614,40,20..50
13385,3385,19th Ave&Randolph St N-FS/PS,37.71428,-122.46962,19,10..20
13387,3387,19th Ave&Randolph St NW-NS/PS,37.71444,-122.47,19,10..20
13388,3388,19th Ave&Rivera St SE-NS/BZ,37.74667,-122.47577,11,10..20
13389,3389,19th Ave&Rivera St SW-FS/BZ,37.74647,-122.47601,6,5..10
13390,3390,19th Ave&Sloat Blvd SW-FS/SB,37.73456,-122.4752,8,5..10
13391,3391,19th Ave&Sloat Blvd NE-FS/BZ,37.73472,-122.47497,24,20..50
13394,3394,19th Ave&Taraval St NE-FS/BZ,37.74331,-122.47554,150,100..200
13395,3395,19th Ave&Taraval St NW-NS/BZ,37.74318,-122.47578,100,100..200
13398,3398,19th Ave&Vicente St SE-NS/SB,37.7392,-122.47528,21,20..50
13399,3399,19th Ave&Vicente St SW-FS/BZ,37.73901,-122.47553,13,10..20
13402,3402,19th Ave&Winston Dr NE-FS/SB,37.72719,-122.47468,113,100..200
13410,3410,20th St&3rd St NW-FS/BZ,37.76054,-122.38871,122,100..200
13411,3411,20th St&3rd St SE-FS/BZ,37.76047,-122.38841,80,50..100
13425,3425,22nd Ave&Irving St NE-FS/BZ,37.76368,-122.48027,75,50..100
13426,3426,22nd Ave&Judah St SE-NS/PS,37.76146,-122.48011,18,10..20
13427,3427,22nd Ave&Kirkham St SE-NS/PS,37.75959,-122.47998,6,5..10
13428,3428,22nd Ave&Lawton St SE-NS/SB,37.75775,-122.47985,8,5..10
13429,3429,22nd Ave&Lincoln Way SE-NS/PS,37.76519,-122.48037,4,2..5
13430,3430,22nd Ave&Moraga St SE-NS/SB,37.7559,-122.47971,14,10..20
13431,3431,22nd Ave&Noriega St NE-FS/BZ,37.75434,-122.47961,73,50..100
13432,3432,22nd St&3rd St NE-NS,37.75801,-122.38809,14,10..20
13435,3435,22nd St&Iowa St NE-FS/BZ,37.75775,-122.39227,38,20..50
13436,3436,22nd St&Minnesota St NE-NS,37.75787,-122.39008,11,10..20
13437,3437,22nd St&Minnesota St SE-NS,37.75781,-122.39027,7,5..10
13439,3439,22nd St& Iowa St SE-NS/BZ,37.75767,-122.39231,35,20..50
13441,3441,23rd Ave&Irving St SW-FS/BZ,37.76313,-122.48148,132,100..200
13442,3442,23rd Ave&Judah St NW-NS/PS,37.76161,-122.48138,16,10..20
13443,3443,23rd Ave&Kirkham St NW-NS/AB,37.75974,-122.48124,4,2..5
13444,3444,23rd Ave&Lawton St NW-NS/PS,37.75787,-122.48111,4,2..5
13445,3445,23rd Ave&Lincoln Way SW-FS/SB,37.76503,-122.48161,3,2..5
13446,3446,23rd Ave&Moraga St NW-NS/PS,37.75601,-122.48099,2,2..5
13447,3447,23rd Ave&Noriega St NW-NS/PS,37.75414,-122.48086,25,20..50
13450,3450,23rd St&Kansas St SW-NS,37.75445,-122.40267,2,2..5
13452,3452,23rd St&Rhode Island St SW-NS/PS,37.75451,-122.40169,5,5..10
13453,3453,23rd St&Utah St NE-NS/BZ,37.75442,-122.40494,114,100..200
13454,3454,23rd St&Utah St SE-FS/BZ,37.7543,-122.4053,13,10..20
13455,3455,23rd St&Vermont St NW-FS/BZ,37.75448,-122.40391,2,2..5
13456,3456,23rd St&Vermont St SW-NS/BZ,37.7544,-122.40363,3,2..5
13458,3458,24th St&Bryant St NW-FS/BZ,37.75285,-122.40928,111,100..200
13459,3459,24th St&Bryant St SE-FS/BZ,37.75276,-122.40897,31,20..50
13460,3460,24th St&Church St NE-NS/BB,37.75178,-122.42733,8,5..10
13461,3461,24th St&Church St SW-NS/BZ,37.75164,-122.42755,49,20..50
13462,3462,24th St&Castro St NW-FS/BZ,37.75136,-122.43425,15,10..20
13463,3463,24th St&Castro St SE-FS/BZ,37.75126,-122.43394,88,50..100
13464,3464,24th St&Diamond St NE-NS,37.75123,-122.43618,4,2..5
13466,3466,24th St&Dolores St NW-FS/BZ,37.7519,-122.42531,4,2..5
13467,3467,24th St&Dolores St SW-NS/BZ,37.75179,-122.42527,7,5..10
13469,3469,24th St&Folsom St NW-FS/BZ,37.75256,-122.41424,58,50..100
13470,3470,24th St&Folsom St SE-FS/BZ,37.75246,-122.41393,51,50..100
13471,3471,24th St&Guerrero St NE-NS/BZ,37.75205,-122.42277,14,10..20
13472,3472,24th St&Guerrero St SW-NS/BZ,37.75191,-122.42299,8,5..10
13473,3473,24th St&Harrison St NW-FS/BZ,37.75269,-122.41205,62,50..100
13474,3474,24th St&Harrison St SE-FS/BZ,37.75259,-122.41174,17,10..20
13476,3476,24th St&Mission St NE-NS/BZ,37.75232,-122.41833,178,100..200
13477,3477,24th St&Mission St SW-NS/BZ,37.75218,-122.41855,401,200..500
13478,3478,24th St&Noe St NE-NS/BZ,37.75151,-122.43177,12,10..20
13480,3480,24th St&Potrero Ave NW-FS/BZ,37.75299,-122.40669,140,100..200
13481,3481,24th St&Sanchez St NE-NS,37.75165,-122.42955,4,2..5
13482,3482,24th St&Sanchez St SW-NS,37.75151,-122.42977,23,20..50
13483,3483,24th St&South Van Ness Ave NE-NS,37.75245,-122.41616,11,10..20
13484,3484,24th St&South Van Ness Ave SW-NS,37.75231,-122.41637,12,10..20
13485,3485,24th St&Valencia St NE-NS/BZ,37.75218,-122.42056,39,20..50
13486,3486,24th St&Valencia St SE-FS/BZ,37.75206,-122.42051,20,20..50
13489,3489,25th Ave&Balboa St NW-NS/PS,37.77642,-122.48456,37,20..50
13490,3490,25th Ave&Balboa St SE-NS/SB,37.77619,-122.48437,10,10..20
13491,3491,25th Ave&California St NW-NS/BZ,37.784,-122.4851,85,50..100
13492,3492,25th Ave&California St SE-NS/BZ,37.78381,-122.48485,5,5..10
13495,3495,25th Ave&Clement St NW-NS/BZ,37.78215,-122.48498,53,50..100
13496,3496,25th Ave&Clement St SE-NS/BZ,37.78195,-122.48471,6,5..10
13497,3497,25th Ave&El Camino Del Mar SE-NS/PS,37.78754,-122.48514,3,2..5
13498,3498,25th Ave&El Camino Del Mar SW-FS/SB,37.78737,-122.48536,11,10..20
13499,3499,25th Ave&Fulton St NW-NS/PS,37.77269,-122.4843,59,50..100
13500,3500,25th Ave&Geary Blvd NW-NS/BZ,37.78026,-122.48484,248,200..500
13501,3501,25th Ave&Geary Blvd SE-NS/BZ,37.77993,-122.48462,16,10..20
13502,3502,25th Ave&Lake St NW-NS/SB,37.78587,-122.48524,7,5..10
13503,3503,25th Ave&Lake St SE-NS/SB,37.78569,-122.48503,1,0..2
13504,3504,25th St&Connecticut St NE-NS/PS,37.75236,-122.39634,40,20..50
13505,3505,25th St&Connecticut St SW-NS/SB,37.75224,-122.39662,15,10..20
13507,3507,25th St&Dakota St NW-FS/PS,37.7525,-122.39483,28,20..50
13511,3511,25th St&Potrero Ave N-MB/BZ,37.75141,-122.40668,113,100..200
13512,3512,25th St&Wisconsin St NE-NS/PS,37.75224,-122.39831,25,20..50
13513,3513,25th St&Wisconsin St SE-FS/PS,37.75216,-122.39829,7,5..10
13514,3514,26th St&Castro St NE-NS/PS,37.74815,-122.43363,11,10..20
13516,3516,26th St&De Haro St NE-NS/SB,37.75086,-122.40015,3,2..5
13517,3517,26th St&De Haro St SE-FS/SB,37.75075,-122.40002,1,0..2
13520,3520,26th St&Noe St NW-FS/SB,37.74827,-122.43177,13,10..20
13521,3521,26th St&Noe St SW-NS/PS,37.74817,-122.43164,8,5..10
13522,3522,26th St&Rhode Island St NE-NS/SB,37.75072,-122.40112,0,0..2
13524,3524,26th St&Wisconsin St NW-FS/SB,37.75111,-122.39866,4,2..5
13535,3535,30th St&Church St NE-NS/BZ,37.74216,-122.42637,31,20..50
13536,3536,30th St&Church St SE-FS/PS,37.74204,-122.42676,14,10..20
13537,3537,30th St&Dolores St NE-NS/PS,37.7423,-122.42403,60,50..100
13538,3538,30th St&Dolores St SW-NS/PS,37.74217,-122.42446,46,20..50
13540,3540,30th St&Mission St NW-FS/BZ,37.74241,-122.42204,277,200..500
13541,3541,30th St&Mission St SW-NS/BZ,37.74231,-122.42217,408,200..500
13542,3542,30th St&Noe St NE-NS/PS,37.74188,-122.43079,8,5..10
13543,3543,30th St&Sanchez St NE-NS/BZ,37.74202,-122.4286,7,5..10
13544,3544,30th St&Sanchez St SW-NS/PS,37.74191,-122.42902,5,5..10
13545,3545,32nd Ave&Balboa St E-MB/BZ,37.77668,-122.49195,1,0..2
13546,3546,32nd Ave&California St SE-NS/PS,37.78342,-122.49244,16,10..20
13547,3547,32nd Ave&California St SW-FS/BZ,37.78343,-122.49255,4,2..5
13548,3548,32nd Ave&Clement St NE-FS/BZ,37.782,-122.49234,33,20..50
13549,3549,32nd Ave&Clement St NW-NS/PS,37.7818,-122.49243,5,5..10
13550,3550,32nd Ave&Geary Blvd NW-NS/PS,37.77994,-122.4923,15,10..20
13551,3551,33rd Ave&Anza St NW-NS/SB,37.77786,-122.49325,1,0..2
13554,3554,33rd Ave&Balboa St NW-NS/BZ,37.776,-122.49313,8,5..10
13555,3555,33rd Ave&Clement St SE-NS/BZ,37.78154,-122.49335,17,10..20
13560,3560,33rd Ave&Geary Blvd SW-FS/BZ,37.77957,-122.49338,12,10..20
13561,3561,36th Ave&Lincoln Way SE-NS/PS,37.76456,-122.49537,8,5..10
13562,3562,37th Ave&Lincoln Way SW-FS/PS,37.76436,-122.49662,6,5..10
13566,3566,42nd Ave&Clement St SE-NS/PS,37.78109,-122.50299,15,10..20
13567,3567,43rd Ave&Clement St SW-FS/SB,37.78101,-122.50423,3,2..5
13568,3568,43rd Ave&Point Lobos Ave NW-NS/PS,37.77978,-122.50414,1,0..2
13599,3599,46th Ave&Taraval St SE-NS/PS,37.74169,-122.50453,17,10..20
13600,3600,46th Ave&Ulloa St NW-NS/PS,37.74,-122.50458,2,2..5
13601,3601,46th Ave&Ulloa St SE-NS/PS,37.73983,-122.50441,142,100..200
13602,3602,46th Ave&Vicente St NW-NS/PS,37.73814,-122.50444,2,2..5
13603,3603,46th Ave&Vicente St SE-NS/PS,37.73797,-122.50427,38,20..50
13608,3608,48th Ave&Point Lobos Ave SW-FS/BZ,37.77902,-122.50941,180,100..200
13621,3621,Alemany Blvd&Arch St NE-NS,37.71163,-122.4669,3,2..5
13622,3622,Alemany Blvd&Arch St SW-NS/BZ,37.71142,-122.46717,9,5..10
13628,3628,Alemany Blvd&St Charles Ave SW-NS,37.71036,-122.46946,1,0..2
13630,3630,Alemany Blvd&Victoria St NE-NS,37.71183,-122.46507,4,2..5
13631,3631,Alemany Blvd&Victoria St SE-FS,37.71164,-122.46492,2,2..5
13642,3642,Arguello Blvd&Balboa St SW-FS/BZ,37.77708,-122.45865,9,5..10
13643,3643,Arguello Blvd&California St SE-NS,37.7856,-122.45909,4,2..5
13644,3644,Arguello Blvd&California St SW-FS,37.78556,-122.45925,21,20..50
13645,3645,Arguello Blvd&Clement St SW-FS/BZ,37.78307,-122.45907,15,10..20
13647,3647,Arguello Blvd&Euclid Ave SE-NS/BZ,37.78374,-122.45896,2,2..5
13648,3648,Arguello Blvd&Fulton St NE-FS/SB,37.77443,-122.4583,4,2..5
13649,3649,Arguello Blvd&Geary Blvd NW-NS/BZ,37.78143,-122.45896,40,20..50
13650,3650,Arguello Blvd&Geary Blvd SE-NS/BZ,37.78108,-122.45876,6,5..10
13651,3651,Arguello Blvd&Turk Blvd NE-FS/BZ,37.77748,-122.45852,2,2..5
13656,3656,Ashbury St&Clifford Ter E-FS/PS,37.76428,-122.44595,3,2..5
13657,3657,Ashbury St&Clifford Ter N-NS/PS,37.7643,-122.4461,2,2..5
13659,3659,Ashbury St&Clayton St SE-FS/PS,37.76298,-122.44681,1,0..2
13661,3661,Ashbury St&Frederick St SE-NS/BZ,37.76715,-122.44628,4,2..5
13662,3662,Ashbury St&Haight St SE-NS/BZ,37.76994,-122.44685,2,2..5
13663,3663,Ashbury St&Piedmont St NW-NS/PS,37.7653,-122.44607,3,2..5
13664,3664,Ashbury St&Piedmont St SE-NS/PS,37.76515,-122.44588,1,0..2
13665,3665,Ashbury St&Waller St NW-NS/PS,37.76916,-122.44685,20,20..50
13666,3666,Ashbury St&Waller St SE-NS/PS,37.76901,-122.44666,1,0..2
13670,3670,Avenue B&Gateview Ave SW-FS/SB,37.82695,-122.3774,21,20..50
13680,3680,Avalon Ave&La Grande Ave SW-NS,37.72474,-122.42422,3,2..5
13681,3681,Avalon Ave&La Grande Ave NE-NS,37.72487,-122.42413,5,5..10
13682,3682,Avalon Ave&Peru Ave SW-NS,37.72508,-122.42342,1,0..2
13685,3685,Bacon St&Girard St NE-NS,37.72744,-122.40451,78,50..100
13686,3686,Bacon St&Girard St SW-NS,37.72732,-122.4047,4,2..5
13687,3687,Bacon St&Goettingen St NE-NS,37.72691,-122.40648,21,20..50
13688,3688,Bacon St&Goettingen St SW-NS,37.7268,-122.40667,4,2..5
13689,3689,Beverly St&Garfield St NW-NS/SB,37.71973,-122.47174,20,20..50
13690,3690,Bernal Heights Blvd&Bradford St NW,37.74183,-122.40978,,
13691,3691,Bernal Heights Blvd&Powhattan Ave NE-FS,37.74151,-122.41067,,
13694,3694,Bosworth St&Elk St SW-NS/SB,37.73487,-122.44007,4,2..5
13695,3695,Bosworth St&Diamond St NE-NS/BZ,37.7336,-122.43401,104,100..200
13696,3696,Bosworth St&Diamond St SE-FS/BZ,37.73349,-122.43408,177,100..200
13697,3697,Bosworth St&Elk St NW-FS/SB,37.73501,-122.44009,8,5..10
13698,3698,Bosworth St&Lippard Ave NE-NS/PS,37.73393,-122.43571,3,2..5
13699,3699,Bosworth St&Lippard Ave SW-NS/PS,37.73383,-122.43597,1,0..2
13705,3705,Lincoln Blvd&Bowley Ave SW-FS/SB,37.78847,-122.48262,11,10..20
13706,3706,Bowley Blvd & Lincoln St,37.79222,-122.48119,122,100..200
13708,3708,Bradford St&Bernal Heights Blvd NE,37.74201,-122.4094,,
13709,3709,Bradford St&Bernal Heights Blvd SW,37.74286,-122.4094,,
13710,3710,Bradford St&Esmeralda Ave SE-NS/PS,37.74285,-122.40934,,
13712,3712,Burnett Ave&Crestline Dr W-FS/SB,37.74912,-122.44494,,
13713,3713,Burnett Ave&Dawnview Way NW-NS/SB,37.74808,-122.44509,,
13715,3715,Broad St&Capitol Ave NE-NS/PS,37.71319,-122.45892,29,20..50
13716,3716,Broad St&Capitol Ave SW-NS/PS,37.71315,-122.45916,28,20..50
13717,3717,Broad St&Orizaba Ave NE-NS/PS,37.71318,-122.46233,10,10..20
13718,3718,Broad St&Plymouth Ave NE-NS/PS,37.71322,-122.45593,30,20..50
13719,3719,Broad St&Plymouth Ave SW-NS/PS,37.71316,-122.45618,37,20..50
13721,3721,Bridgeview Dr&Scotia Ave N-NS,37.73184,-122.3994,8,5..10
13722,3722,Bridge View Dr&Topeka Ave S-NS,37.7332,-122.39769,3,2..5
13723,3723,Bryant St&4TH St S-NS/PS,37.77947,-122.39807,9,5..10
13724,3724,Bryant St&5TH St E-FS/BZ,37.77795,-122.39995,29,20..50
13725,3725,Bryant St&6TH St E-FS/BZ,37.77616,-122.40223,53,50..100
13730,3730,Bryant St&16TH St SE-NS/BZ,37.76549,-122.4104,14,10..20
13731,3731,Bryant St&16TH St SW-FS/BZ,37.7653,-122.41054,19,10..20
13732,3732,Bryant St&17TH St SE-NS/BZ,37.76422,-122.41028,3,2..5
13733,3733,Bryant St&17TH St SW-FS/BZ,37.76402,-122.41041,4,2..5
13734,3734,Bryant St&18TH St NW-NS/BZ,37.76187,-122.4102,3,2..5
13735,3735,Bryant St&18TH St SE-NS/BZ,37.76167,-122.41004,9,5..10
13736,3736,Bryant St&19TH St NW-NS/BZ,37.76058,-122.41008,5,5..10
13737,3737,Bryant St&19TH St SE-NS/BZ,37.76038,-122.40991,9,5..10
13738,3738,Bryant St&20TH St NW-NS/PS,37.75933,-122.40993,5,5..10
13739,3739,Bryant St&20TH St SE-NS/BZ,37.75911,-122.40966,9,5..10
13740,3740,Bryant St&21ST St SE-NS/BZ,37.75751,-122.4095,14,10..20
13741,3741,Bryant St&21ST St SW-FS/BB,37.7574,-122.40961,7,5..10
13742,3742,Bryant St&22ND St NE-FS/BB,37.75621,-122.40942,15,10..20
13743,3743,Bryant St&22ND St SW-FS/BZ,37.75572,-122.40949,2,2..5
13744,3744,Bryant St&23RD St SE-NS/BZ,37.75431,-122.40919,5,5..10
13745,3745,Bryant St&23RD St SW-FS/BB,37.75415,-122.40932,1,0..2
13746,3746,Bryant St&24TH St NE-FS/BZ,37.75291,-122.40909,40,20..50
13747,3747,Bryant St&24TH St SW-FS/BZ,37.75273,-122.40918,5,5..10
13748,3748,Bryant St&25TH St NW-NS/BZ,37.7513,-122.40907,1,0..2
13749,3749,Bryant St&25TH St SE-NS/BZ,37.75111,-122.40889,6,5..10
13750,3750,Bryant St&26TH St NW-NS/BZ,37.74969,-122.40891,2,2..5
13751,3751,Bryant St&26TH St SE-NS/BZ,37.74951,-122.40873,7,5..10
13756,3756,Bryant St&Mariposa St NW-NS/BZ,37.76314,-122.41032,2,2..5
13768,3768,228 Bay Shore Blvd W-FS/BZ,37.74472,-122.40443,3,2..5
13771,3771,Bay Shore Blvd&Alemany Blvd SW-FS/SB,37.73773,-122.407,9,5..10
13772,3772,Bay Shore Blvd&Arleta Ave W-FS/BZ,37.71221,-122.40274,175,100..200
13773,3773,Bay Shore Blvd&Augusta St NW-NS/BZ,37.73425,-122.40558,1,0..2
13775,3775,Bay Shore Blvd&Boutwell St NE-FS/BZ,37.73488,-122.40588,18,10..20
13776,3776,Bay Shore Blvd&Campbell Ave SW-FS,37.71481,-122.39936,,
13778,3778,Bay Shore Blvd&Cortland Ave NE-FS/BZ,37.73986,-122.40677,151,100..200
13779,3779,Bay Shore Blvd&Cortland Ave NW-NS/BZ,37.73946,-122.40712,99,50..100
13780,3780,Bay Shore Blvd&Hester Ave S-NS/PS,37.71497,-122.39898,0,0..2
13783,3783,Bay Shore Blvd&Leland Ave W-FS/BZ,37.71114,-122.40378,32,20..50
13788,3788,Bay Shore Blvd&Silver Ave N-FS/BZ,37.73321,-122.40472,38,20..50
13789,3789,Bay Shore Blvd&Silver Ave NW-NS,37.73296,-122.40479,3,2..5
13793,3793,Bay Shore Blvd&Visitacion Ave E-FS/BZ,37.71062,-122.40389,94,50..100
13812,3812,Bush St&Hyde St SE-FS/BZ,37.78915,-122.41658,13,10..20
13814,3814,Bush St&Leavenworth St SE-FS/BZ,37.7893,-122.41496,7,5..10
13818,3818,Buena Vista Ave East&SJ H NW-MB/SB,37.76773,-122.44021,,
13819,3819,Buena Vista Ter&Buena Vista East E,37.76883,-122.43833,,
13820,3820,Buena Vista Ter&Roosevelt Way NE-FS,37.76685,-122.43815,,
13822,3822,California St&4TH Ave NE-NS/BZ,37.78535,-122.46229,10,10..20
13823,3823,California St&4TH Ave SW-NS/BZ,37.78518,-122.46257,66,50..100
13824,3824,California St&6TH Ave NW-FS/BB,37.78507,-122.46464,129,100..200
13825,3825,California St&6TH Ave SW-NS/BZ,37.7849,-122.46471,152,100..200
13826,3826,California St&7TH Ave SE-FS/BZ,37.78482,-122.46543,75,50..100
13827,3827,California St&8TH Ave SW-NS/BZ,37.78463,-122.46683,62,50..100
13828,3828,California St&10TH Ave NW-FS/PS,37.78467,-122.46916,12,10..20
13830,3830,California St&10TH Ave SW-NS/BZ,37.78455,-122.46896,47,20..50
13831,3831,California St&12TH Ave NE-NS/BZ,37.78459,-122.47085,9,5..10
13832,3832,California St&12TH Ave SW-NS/BZ,37.78445,-122.4711,124,100..200
13833,3833,California St&16TH Ave NE-NS/BZ,37.78439,-122.47523,3,2..5
13834,3834,California St&16TH Ave SW-NS/BZ,37.78425,-122.4755,36,20..50
13835,3835,California St&19TH Ave NE-NS/BZ,37.78424,-122.47845,9,5..10
13836,3836,California St&19TH Ave SW-NS/BZ,37.78411,-122.47871,70,50..100
13837,3837,California St&22ND Ave NE-NS/BZ,37.7841,-122.48166,8,5..10
13838,3838,California St&22ND Ave SW-NS/PS,37.78394,-122.48189,85,50..100
13839,3839,California St&25TH Ave NE-NS/PS,37.78395,-122.48482,10,10..20
13840,3840,California St&25TH Ave SW-NS/BZ,37.78381,-122.48529,152,100..200
13841,3841,California St&28TH Ave NE-NS/PS,37.7838,-122.48807,5,5..10
13842,3842,California St&28TH Ave SW-NS/PS,37.78366,-122.48846,52,50..100
13843,3843,California St&30TH Ave NW-FS/BZ,37.78367,-122.49051,2,2..5
13844,3844,California St&30TH Ave SE-FS/PS,37.78358,-122.49009,23,20..50
13845,3845,California St&Arguello Blvd NW-FS/BZ,37.7857,-122.45929,35,20..50
13846,3846,California St&Arguello Blvd SE-FS/BZ,37.78566,-122.45904,71,50..100
13847,3847,California St&Baker St NE-NS/BZ,37.78774,-122.44363,13,10..20
13848,3848,California St&Baker St SE-FS/BZ,37.78762,-122.44338,38,20..50
13852,3852,California St&Cherry St NW-FS/BZ,37.78604,-122.45684,24,20..50
13853,3853,California St&Cherry St SE-FS/BZ,37.78597,-122.45633,39,20..50
13858,3858,California St&Divisadero St NW-FS/BZ,37.78809,-122.44087,90,50..100
13859,3859,California St&Divisadero St SW-NS/BZ,37.78795,-122.44072,133,100..200
13875,3875,California St&Laurel St NE-NS/BZ,37.78692,-122.44996,32,20..50
13876,3876,California St&Laurel St SW-NS/PS,37.7868,-122.44998,52,50..100
13884,3884,California St&Pierce St NW-FS/BZ,37.78852,-122.43748,15,10..20
13885,3885,California St&Pierce St SE-FS/BZ,37.78846,-122.43681,28,20..50
13886,3886,California St&Park Presidio Blvd NW,37.78452,-122.47325,6,5..10
13887,3887,California St&Park Presidio Blvd SW,37.78437,-122.47276,38,20..50
13892,3892,California St&Presidio Ave NW-FS/BZ,37.78727,-122.44697,305,200..500
13893,3893,California St&Presidio Ave SW-NS/BZ,37.78721,-122.44693,176,100..200
13896,3896,California St&Spruce St NE-NS/BZ,37.78646,-122.45352,76,50..100
13897,3897,California St&Spruce St SW-NS/BZ,37.78638,-122.45327,92,50..100
13911,3911,Carl St&Cole St SW-NS,37.76575,-122.45013,79,50..100
13912,3912,Carl St&Hillway Ave NE-MB,37.765,-122.45656,13,10..20
13913,3913,Carl St&Hillway Ave SE-FS/FL,37.76493,-122.45651,31,20..50
13914,3914,Carl St&Stanyan St NE-NS,37.7655,-122.45259,24,20..50
13915,3915,Carl St&Stanyan St SW-NS,37.76537,-122.45293,44,20..50
13920,3920,Cashmere St&Hudson Ave SW-NS,37.73573,-122.38354,3,2..5
13921,3921,Cashmere St&La Salle Ave NE-FS,37.73585,-122.38695,1,0..2
13922,3922,Cashmere St&Whitney Young Cir W-NS,37.7366,-122.38588,1,0..2
13927,3927,Cabrillo St&La Playa NE-NS/SI,37.77353,-122.51,142,100..200
13930,3930,Cesar Chavez St&Florida St SW-NS/BZ,37.74823,-122.40976,4,2..5
13931,3931,Cesar Chavez St&Folsom St NW-FS/BB,37.74834,-122.41398,4,2..5
13932,3932,Cesar Chavez St&Folsom St SW-NS/BZ,37.74815,-122.41382,7,5..10
13934,3934,Cesar Chavez St&Harrison St SW-NS,37.7482,-122.41163,8,5..10
13936,3936,Cesar Chavez St&South Van Ness Ave NE-NS/BB,37.74831,-122.41576,1,0..2
13940,3940,Chestnut St&Divisadero St NE-NS/BZ,37.80005,-122.44275,7,5..10
13941,3941,Chestnut St&Fillmore St NE-NS/BZ,37.80085,-122.43625,24,20..50
13942,3942,Chestnut St&Fillmore St SW-NS/BZ,37.80074,-122.43637,70,50..100
13947,3947,Chestnut St&Laguna St NW-FS/BZ,37.80149,-122.43148,15,10..20
13948,3948,Chestnut St&Laguna St SW-NS/BZ,37.80137,-122.43141,46,20..50
13952,3952,Chestnut St&Pierce St NW-FS/BZ,37.80051,-122.43935,11,10..20
13953,3953,Chestnut St&Pierce St SW-NS/BZ,37.80031,-122.43962,69,50..100
13957,3957,Chestnut St&Van Ness Ave SW-NS/BZ,37.8022,-122.42489,22,20..50
13958,3958,Chestnut St&Webster St NE-NS/BZ,37.8011,-122.4345,6,5..10
13959,3959,Chestnut St&Webster St SW-NS/BZ,37.80095,-122.4347,32,20..50
13960,3960,Chicago Way&Cordova St E-FS/PS,37.70887,-122.43422,1,0..2
13961,3961,Chicago Way&Cordova St N-NS/SB,37.70897,-122.43434,11,10..20
13962,3962,Chicago Way&Naylor St N-NS/PS,37.70983,-122.43244,5,5..10
13963,3963,Chicago Way&Naylor St S-NS/PS,37.70963,-122.4325,1,0..2
13964,3964,Chicago Way&South Hill Blvd S-NS/PS,37.71057,-122.43138,1,0..2
13984,3984,Church St&16TH St NW-NS/SI,37.76462,-122.42872,96,50..100
13985,3985,Church St&16TH St SE-NS/SI,37.76438,-122.42861,28,20..50
13987,3987,Church St&18TH St NW-NS/SI,37.76147,-122.42842,70,50..100
13994,3994,Church St&22ND St SE-NS/PS,37.75474,-122.42764,64,50..100
13995,3995,Church St&24TH St NW-NS/SI,37.7518,-122.4275,70,50..100
13996,3996,Church St&24TH St SE-NS/SI,37.75159,-122.42735,117,100..200
13997,3997,Church St&27TH St NW-NS/PS,37.74699,-122.42707,64,50..100
13998,3998,Church St&27TH St SE-NS/PS,37.74678,-122.42689,69,50..100
13999,3999,Church St&29TH St SE-NS/SI,37.74359,-122.42659,109,100..200
14000,4000,Church St&30TH St NE-FS/PS,37.74222,-122.42646,98,50..100
14002,4002,Church St&Clipper St NW-NS/PS,37.74939,-122.42729,100,100..200
14003,4003,Church St&Clipper St SE-NS/PS,37.74918,-122.42712,117,100..200
14004,4004,Church St&Day St SW-FS/SI,37.74281,-122.42665,81,50..100
14005,4005,Church St&Duboce Ave NW-NS/BZ,37.7695,-122.42917,105,100..200
14006,4006,Church St&Duboce Ave SE-NS/SI,37.7693,-122.42909,209,200..500
14015,4015,Clay St&Drumm St SW-NS/BZ,37.79544,-122.39682,434,200..500
14016,4016,Clay St&Franklin St SW-NS/BZ,37.79191,-122.42446,41,20..50
14017,4017,Clay St&Front St SE-FS/BZ,37.79512,-122.3991,5,5..10
14018,4018,Clay St&Grant Ave SE-FS/BZ,37.79426,-122.40597,36,20..50
14019,4019,Clay St&Hyde St SW-NS/BZ,37.79276,-122.4179,86,50..100
14020,4020,Clay St&Jones St SW-NS/BZ,37.79317,-122.41462,25,20..50
14021,4021,Clay St&Kearny St SE-FS/BZ,37.79448,-122.40441,28,20..50
14022,4022,Clay St&Larkin St SW-NS/BZ,37.79253,-122.41959,85,50..100
14023,4023,Clay St&Leavenworth St SW-NS/BZ,37.79296,-122.4163,72,50..100
14024,4024,Clay St&Mason St SE-FS/BZ,37.79365,-122.41082,11,10..20
14025,4025,Clay St&Montgomery St SE-FS/BZ,37.79468,-122.40277,18,10..20
14026,4026,Clay St&Polk St SE-FS/BZ,37.79236,-122.42101,290,200..500
14027,4027,Clay St&Powell St SW-NS/BZ,37.79383,-122.40959,20,20..50
14028,4028,Clay St&Sansome St SE-FS/BZ,37.79478,-122.40134,3,2..5
14029,4029,Clay St&Stockton St SE-FS/BZ,37.79408,-122.40756,115,100..200
14030,4030,Clay St&Taylor St SE-FS/BZ,37.79336,-122.41274,32,20..50
14031,4031,Clay St&Van Ness Ave SW-NS/BZ,37.79211,-122.42291,165,100..200
14070,4070,Clayton St&Twin Peaks Blvd SW-FS/BZ,37.76086,-122.44649,4,2..5
14071,4071,Clipper St&Diamond Heights Blvd-NS,37.74689,-122.44396,6,5..10
14072,4072,Clipper St&Portola Dr S-FS,37.7467,-122.445,22,20..50
14075,4075,Clayton St&Corbett Ave E-NS/PS,37.75879,-122.44594,4,2..5
14076,4076,Clayton St&Corbett Ave SE-FS/BZ,37.75867,-122.44587,7,5..10
14077,4077,Clayton St&Carmel St SE-NS/PS,37.76094,-122.44634,2,2..5
14079,4079,Clayton St&Market St NW-FS/PS,37.75838,-122.44448,13,10..20
14080,4080,Clayton St&Market St S-NS/PS,37.75822,-122.44432,3,2..5
14088,4088,Cole St&17TH St NW-NS/SB,37.76171,-122.44921,,
14089,4089,Cole St&Alma St NW-NS/SB,37.76326,-122.44953,,
14090,4090,Cole St&Alma St SE-NS/PS,37.76313,-122.44938,,
14091,4091,Cole St&Carl St NE-FS/BZ,37.76594,-122.44991,21,20..50
14092,4092,Cole St&Carl St SW-FS/BZ,37.76556,-122.44996,21,20..50
14093,4093,Cole St&Carmel St NW-NS/SB,37.76093,-122.44905,,
14094,4094,Cole St&Frederick St NW-NS/PS,37.76683,-122.4502,5,5..10
14095,4095,Cole St&Haight St SE-NS/PS,37.76946,-122.45061,19,10..20
14096,4096,Cole St&Haight St SW-FS/SB,37.76945,-122.45077,30,20..50
14097,4097,Cole St&Parnassus Ave SE-NS/PS,37.76477,-122.44971,,
14098,4098,Cole St&Parnassus Ave SW-FS/BZ,37.76462,-122.44978,,
14099,4099,Cole St&Waller St SE-NS/PS,37.76853,-122.45043,9,5..10
14100,4100,Columbus Ave&Bay St W-MB/BZ,37.80551,-122.41784,52,50..100
14103,4103,Columbus Ave&Chestnut St N-FS/BZ,37.80379,-122.41514,14,10..20
14105,4105,Columbus Ave&Filbert St W-NS/BZ,37.80119,-122.41161,26,20..50
14106,4106,Columbus Ave&Francisco St N-FS/BZ,37.80452,-122.41617,14,10..20
14107,4107,Columbus Ave&Francisco St SW-FS/BZ,37.80421,-122.41597,87,50..100
14114,4114,Columbus Ave&Lombard St SW-FS/BZ,37.8026,-122.41365,56,50..100
14115,4115,Columbus Ave&Mason St E-NS/BZ,37.80209,-122.41266,17,10..20
14116,4116,Columbus Ave&North Point St E-MB/BZ,37.80549,-122.41759,16,10..20
14118,4118,Columbus Ave&Taylor St S-FS/BZ,37.80329,-122.41464,47,20..50
14119,4119,Columbus Ave&Union St NE-FS/BZ,37.8005,-122.41036,60,50..100
14120,4120,Columbus Ave&Union St NW-NS/BZ,37.80038,-122.41051,189,100..200
14122,4122,General Managers Office NE-MB/SB,37.7539,-122.39734,23,20..50
14123,4123,Connecticut St&17TH St SE-NS/SB,37.76498,-122.39766,25,20..50
14124,4124,Connecticut St&17TH St SW-FS/BZ,37.76475,-122.39779,7,5..10
14125,4125,Connecticut St&18TH St NW-NS/PS,37.76261,-122.39757,2,2..5
14126,4126,Connecticut St&18TH St SE-NS/BZ,37.76243,-122.39741,20,20..50
14127,4127,Connecticut St&19TH St SE-NS/PS,37.76115,-122.39733,6,5..10
14128,4128,Connecticut St&25TH St NE-FS/PS,37.75256,-122.3964,43,20..50
14129,4129,Connecticut St&26TH St NE-FS/SB,37.75143,-122.39635,4,2..5
14130,4130,Connecticut St&26TH St NW-NS/SB,37.75127,-122.39652,2,2..5
14131,4131,Connecticut St&Cesar Chavez St NE-FS,37.75,-122.39622,13,10..20
14132,4132,Connecticut St&Cesar Chavez St NW-NS,37.74987,-122.39638,4,2..5
14137,4137,Cordova Ave&Prague St SE-NS/SB,37.71018,-122.43487,17,10..20
14138,4138,Cordova Ave&Winding Way NW-NS/PS,37.70964,-122.43483,0,0..2
14139,4139,Cordova St&Winding Way SE-NS/SB,37.7095,-122.43459,2,2..5
14142,4142,Cortland Ave&Andover St NE-NS/PS,37.73909,-122.41639,41,20..50
14143,4143,Cortland Ave&Andover St SW-NS/BZ,37.73904,-122.41658,13,10..20
14145,4145,Cortland Ave&Bocana St NE-NS/BZ,37.7393,-122.41846,22,20..50
14146,4146,Cortland Ave&Bocana St SW-NS/BZ,37.73931,-122.41872,4,2..5
14147,4147,Cortland Ave&Bradford St N-MB/PS,37.73979,-122.40975,21,20..50
14148,4148,Cortland Ave&Bay Shore Blvd SW-NS/BZ,37.73957,-122.40703,81,50..100
14149,4149,Cortland Ave&Elsie St N-FS/BZ,37.73992,-122.41997,5,5..10
14150,4150,Cortland Ave&Elsie St W-NS/BZ,37.7397,-122.41969,3,2..5
14151,4151,Cortland Ave&Ellsworth St NE-NS/PS,37.73892,-122.41455,12,10..20
14152,4152,Cortland Ave&Ellsworth St SW-NS/BZ,37.73883,-122.41462,6,5..10
14153,4153,Cortland Ave&Folsom St NW-FS/BZ,37.739,-122.41366,58,50..100
14154,4154,Cortland Ave&Folsom St SW-NS/BZ,37.73892,-122.41343,23,20..50
14155,4155,Cortland Ave&Hilton St NW-FS/BZ,37.73969,-122.40781,168,100..200
14156,4156,Cortland Ave&Mission St E-NS/BZ,37.74101,-122.42267,56,50..100
14157,4157,Cortland Ave&Mission St S-FS/BZ,37.74085,-122.42251,94,50..100
14158,4158,Cortland Ave&Prentiss St NE-NS/PS,37.73978,-122.41199,10,10..20
14159,4159,Cortland Ave&Prentiss St SW-NS/PS,37.73957,-122.41211,2,2..5
14160,4160,Cortland Ave&Prospect Ave N-FS/BZ,37.74029,-122.4209,2,2..5
14161,4161,Cortland Ave&Prospect Ave W-NS/BZ,37.7402,-122.42093,3,2..5
14162,4162,211 Corbett Ave N-MB/SB,37.7618,-122.44284,,
14163,4163,211 Corbett Ave S-MB/SB,37.76165,-122.44294,,
14164,4164,328 Corbett Ave NW-MB/SB,37.75993,-122.44533,,
14165,4165,341 Corbett Ave SE-MB/PS,37.75991,-122.44508,,
14166,4166,539 Corbett Ave E-MB/SB,37.7575,-122.44415,,
14167,4167,795 Corbett Ave NW-MB/SB,37.75412,-122.44301,,
14168,4168,800 Corbett Ave SE-MB/PS,37.75399,-122.443,,
14169,4169,925 Corbett Ave E-FS/PS,37.75208,-122.44341,,
14170,4170,956 Corbett Ave W-MB/SB,37.75168,-122.44371,,
14171,4171,Corbett Ave&Clayton St N-NS/PS,37.75894,-122.44614,,
14172,4172,Corbett Ave&Clayton St SE-NS/PS,37.75866,-122.4459,,
14173,4173,Corbett Ave&Cuesta Ct N-FS/BZ,37.75085,-122.44396,,
14174,4174,Corbett Ave&Danvers St S-NS/PS,37.7612,-122.44404,,
14175,4175,Corbett Ave&Danvers St W-FS/SB,37.76133,-122.44408,,
14176,4176,Corbett Ave&Douglass St SW-NS/SB,37.76208,-122.43962,,
14177,4177,Corbett Ave&Graystone Ter E-MI/PS,37.75641,-122.44328,,
14178,4178,Corbett Ave&Graystone Ter NW-NS/SB,37.75645,-122.44343,,
14179,4179,Corbett Ave&Hattie St NW-FS/SB,37.76171,-122.44112,,
14180,4180,Corbett Ave&Hattie St SW-NS/SB,37.76161,-122.44112,,
14181,4181,Corbett Ave&Hopkins Ave N-NS/PS,37.75287,-122.44382,,
14182,4182,Corbett Ave&Iron Aly W-NS/PS,37.75783,-122.44474,,
14183,4183,Corbett Ave&Mars St S-NS/SB,37.76054,-122.44425,,
14184,4184,Corbett Ave&Mars St W-FS/SB,37.76048,-122.44448,,
14185,4185,Corbett Ave&Ord St NW-FS/SB,37.7619,-122.44022,,
14186,4186,Corbett Ave&Romain St E-NS/SB,37.75548,-122.4428,,
14187,4187,Corbett Ave&Romain St S-FS/SB,37.75535,-122.44283,,
14202,4202,Crescent Ave&Putnam St SW-NS/SB,37.73491,-122.41128,,
14204,4204,Carmel St&Belvedere St SW-MI/SB,37.76092,-122.44763,,
14205,4205,Carmel St&Twin Peaks Blvd SW-NS/PS,37.76094,-122.44663,,
14207,4207,Crespi Dr&Varela Ave NE-NS/SB,37.7201,-122.47594,64,50..100
14209,4209,40 Crestline Dr NE-MB/SB,37.75039,-122.44658,,
14210,4210,74 Crestline Dr E-MB/SB,37.75176,-122.4462,,
14211,4211,Fulton St&33RD Ave NW-FS/PS,37.77223,-122.49318,6,5..10
14212,4212,Fulton St&33RD Ave SW-NS/BZ,37.7721,-122.49288,25,20..50
14213,4213,Fulton St&36TH Ave NW-FS/BZ,37.77208,-122.49634,5,5..10
14215,4215,Fulton St&37TH Ave SE-FS/BZ,37.77192,-122.49679,53,50..100
14218,4218,Fulton St&40TH Ave SE-FS/BZ,37.77179,-122.49991,22,20..50
14221,4221,Fulton St&46TH Ave NW-FS/BZ,37.77159,-122.50704,3,2..5
14222,4222,Fulton St&46TH Ave SE-FS/BZ,37.77148,-122.50631,41,20..50
14223,4223,Fulton St&Arguello Blvd NW-FS/BZ,37.77435,-122.45842,23,20..50
14224,4224,Fulton St&Arguello Blvd SE-FS/BZ,37.77428,-122.458,40,20..50
14225,4225,Fulton St&Clayton St NW-FS/BZ,37.77541,-122.44977,8,5..10
14226,4226,Fulton St&Clayton St SE-FS/BZ,37.77537,-122.44929,23,20..50
14228,4228,Fulton St&La Playa SE-FS/BZ,37.77134,-122.50939,104,100..200
14229,4229,Fulton St&Masonic Ave NE-NS/BZ,37.77584,-122.4464,106,100..200
14230,4230,Fulton St&Masonic Ave SE-FS/BZ,37.77577,-122.44629,171,100..200
14231,4231,Fulton St&Park Presidio Blvd NW-FS,37.77319,-122.47218,34,20..50
14232,4232,Fulton St&Park Presidio Blvd SE-FS/BZ,37.77307,-122.4717,56,50..100
14233,4233,Fulton St&Parker Ave NW-FS/BZ,37.77501,-122.45287,23,20..50
14234,4234,Fulton St&Shrader St SE-FS/BZ,37.77499,-122.45238,69,50..100
14235,4235,Fulton St&Stanyan St SE-FS/BZ,37.77476,-122.45452,32,20..50
14236,4236,Fulton St&Stanyan St NW-FS/BZ,37.77477,-122.45474,20,20..50
14245,4245,Garfield St&Beverly St NE-NS/PS,37.71972,-122.47153,11,10..20
14246,4246,Garfield St&Bright St NE-NS/SB,37.71999,-122.46346,7,5..10
14247,4247,Garfield St&Bright St SW-NS/SB,37.71979,-122.46364,17,10..20
14248,4248,Garfield St&Byxbee St NE-NS/SB,37.71974,-122.46974,12,10..20
14253,4253,Garfield St&Vernon St NE-NS/SB,37.71975,-122.46794,12,10..20
14254,4254,Garfield St&Victoria St SW-NS/PS,37.71961,-122.46545,14,10..20
14255,4255,Geary Blvd&3RD Ave NE-NS/BZ,37.78128,-122.46094,33,20..50
14256,4256,Geary Blvd&3RD Ave SW-NS/BZ,37.78105,-122.46116,132,100..200
14257,4257,Geary Blvd&6TH Ave NE-NS/BZ,37.78113,-122.46416,217,200..500
14258,4258,Geary Blvd&6TH Ave SW-NS/BZ,37.7809,-122.46438,393,200..500
14259,4259,Geary Blvd&9TH Ave NW-FS/BZ,37.78098,-122.46764,93,50..100
14260,4260,Geary Blvd&9TH Ave SE-FS/BZ,37.78078,-122.46732,135,100..200
14261,4261,Geary Blvd&12TH Ave NE-NS/BZ,37.78084,-122.4706,31,20..50
14262,4262,Geary Blvd&12TH Ave SE-FS/BZ,37.78061,-122.47082,64,50..100
14263,4263,Geary Blvd&17TH Ave NE-NS/BZ,37.7806,-122.47605,60,50..100
14264,4264,Geary Blvd&17TH Ave SW-NS/BZ,37.78037,-122.47626,161,100..200
14265,4265,Geary Blvd&20TH Ave NE-NS/BZ,37.78045,-122.47927,106,100..200
14266,4266,Geary Blvd&20TH Ave SW-NS/BZ,37.78022,-122.47948,320,200..500
14267,4267,Geary Blvd&22ND Ave NE-NS/BZ,37.78035,-122.4814,22,20..50
14268,4268,Geary Blvd&23RD Ave SW-NS/BZ,37.78008,-122.48269,35,20..50
14269,4269,Geary Blvd&25TH Ave NE-NS/BZ,37.78022,-122.48461,68,50..100
14270,4270,Geary Blvd&25TH Ave SW-NS/BZ,37.77998,-122.48483,383,200..500
14271,4271,Geary Blvd&28TH Ave NE-NS/BZ,37.78001,-122.48781,36,20..50
14272,4272,Geary Blvd&28TH Ave SW-NS/BZ,37.77986,-122.48805,96,50..100
14273,4273,Geary Blvd&30TH Ave NE-NS/BZ,37.77996,-122.48997,11,10..20
14274,4274,Geary Blvd&30TH Ave SW-NS/BZ,37.77973,-122.49019,46,20..50
14275,4275,Geary Blvd&32ND Ave SE-FS/BZ,37.77961,-122.49194,64,50..100
14277,4277,Geary Blvd&33RD Ave NE-NS/BZ,37.77974,-122.49311,194,100..200
14278,4278,Geary Blvd&33RD Ave NW-FS/BZ,37.7798,-122.49345,41,20..50
14279,4279,Geary Blvd&33RD Ave SW-NS/BZ,37.77957,-122.4934,173,100..200
14280,4280,Geary Blvd&36TH Ave NE-NS/BZ,37.77967,-122.4964,4,2..5
14281,4281,Geary Blvd&36TH Ave SW-NS/BZ,37.77944,-122.49662,81,50..100
14282,4282,Geary Blvd&40TH Ave NE-NS/BZ,37.77947,-122.50068,4,2..5
14283,4283,Geary Blvd&39TH Ave SW-NS/BZ,37.77929,-122.49983,73,50..100
14285,4285,Geary Blvd&42ND Ave SE-FS/BZ,37.77915,-122.50278,160,100..200
14286,4286,Geary Blvd&45TH Ave SW-NS/PS,37.77904,-122.50626,34,20..50
14288,4288,Geary Blvd&Arguello Blvd SE-FS/BZ,37.78115,-122.45869,210,200..500
14289,4289,Geary Blvd&Baker St NW-FS/BZ,37.78297,-122.44297,35,20..50
14290,4290,Geary Blvd&Collins St NE-NS/BZ,37.78224,-122.44999,30,20..50
14291,4291,Geary Blvd&Collins St SE-FS/BZ,37.78203,-122.44991,39,20..50
14292,4292,Geary Blvd&Commonwealth St NW-FS/BZ,37.78153,-122.45568,20,20..50
14293,4293,Geary Blvd&Divisadero St NE-NS/BZ,37.78343,-122.43937,211,200..500
14294,4294,Geary Blvd&Divisadero St SW-NS/BZ,37.78318,-122.43957,348,200..500
14295,4295,Geary Blvd&Fillmore St NW-FS/BZ,37.78439,-122.43305,317,200..500
14298,4298,Geary Blvd&Gough St NW-FS/BZ,37.78543,-122.42508,44,20..50
14300,4300,Geary St&Jones St NW-FS/BZ,37.78677,-122.41333,102,100..200
14301,4301,Geary St&Kearny St NW-FS/BB,37.788,-122.40366,370,200..500
14302,4302,Geary St&Larkin St NW-FS/BZ,37.78614,-122.41825,400,200..500
14303,4303,Geary St&Leavenworth St NW-FS/BB,37.78656,-122.41497,362,200..500
14304,4304,Geary Blvd&Laguna St NE-NS/BZ,37.78503,-122.42781,82,50..100
14305,4305,Geary Blvd&Laguna St SW-NS/BZ,37.78485,-122.42816,165,100..200
14307,4307,Castro St&14TH St NE-FS/BZ,37.76761,-122.43558,9,5..10
14308,4308,Castro St&14TH St NW-NS/BZ,37.76742,-122.43571,22,20..50
14309,4309,Castro St&15TH St NW-NS/PS,37.76583,-122.43557,4,2..5
14310,4310,Castro St&15TH St SE-NS/PS,37.76561,-122.43538,8,5..10
14311,4311,Castro St&16TH St NE-FS/BZ,37.76416,-122.43525,6,5..10
14312,4312,Castro St&16TH St NW-NS/SB,37.76427,-122.43544,5,5..10
14313,4313,Castro St&17TH St SE-NS/BZ,37.76237,-122.43508,132,100..200
14314,4314,Castro St&18TH St SE-NS/BB,37.76084,-122.43493,129,100..200
14315,4315,Castro St&18TH St SW-FS/BB,37.76086,-122.43505,105,100..200
14316,4316,Castro St&19TH St NW-NS/PS,37.75939,-122.43491,17,10..20
14317,4317,Castro St&19TH St SE-NS/PS,37.75916,-122.43479,7,5..10
14318,4318,Castro St&20TH St NW-NS/PS,37.75778,-122.43477,6,5..10
14319,4319,Castro St&20TH St SE-NS/PS,37.75763,-122.43464,5,5..10
14320,4320,Castro St&21ST St E-MI/SB,37.75596,-122.43447,4,2..5
14321,4321,Castro St&21ST St W-MI/SB,37.7561,-122.43463,4,2..5
14322,4322,Castro St&22ND St NW-NS/PS,37.75464,-122.43448,4,2..5
14323,4323,Castro St&22ND St SE-NS/PS,37.75441,-122.43431,8,5..10
14324,4324,Castro St&23RD St E-MI/SB,37.75278,-122.43416,6,5..10
14325,4325,Castro St&23RD St W-MI/SB,37.7529,-122.43432,2,2..5
14326,4326,Castro St&24TH St SE-NS/BZ,37.7512,-122.43401,138,100..200
14327,4327,Castro St&24TH St SW-FS/BZ,37.75132,-122.43411,47,20..50
14328,4328,Castro St&25TH St NW-NS/BZ,37.74981,-122.43404,5,5..10
14329,4329,Castro St&25TH St SE-NS/BZ,37.7496,-122.43383,19,10..20
14330,4330,Castro St&Duboce Ave NW-NS/BZ,37.76918,-122.43596,16,10..20
14331,4331,Castro St&Duboce Ave SE-NS/BZ,37.76895,-122.43571,17,10..20
14332,4332,Castro St&Elizabeth St E-MI/SB,37.75189,-122.43405,4,2..5
14333,4333,Castro St&Elizabeth St W-MI/SB,37.75208,-122.43425,1,0..2
14334,4334,Castro St&Market St SW-FS/BB,37.7624,-122.43527,99,50..100
14336,4336,Curtis St&Prague St W-NS/SB,37.71021,-122.43796,0,0..2
14337,4337,Cargo Way&3RD St NE-NS/SB,37.74606,-122.38695,1,0..2
14338,4338,Cargo Way&3RD St SE-FS/SB,37.74577,-122.38665,0,0..2
14341,4341,Daly City BART Station W-FS/SB,37.70576,-122.46927,69,50..100
14350,4350,De Haro St&16TH St SE-NS/SB,37.76606,-122.40163,1,0..2
14351,4351,De Haro St&17TH St SE-NS/SB,37.76476,-122.40152,18,10..20
14352,4352,De Haro St&18TH St SE-NS/SB,37.76221,-122.40124,4,2..5
14353,4353,De Haro St&19TH St SE-NS/PS,37.76093,-122.40112,2,2..5
14354,4354,De Haro St&20TH St SE-NS/SB,37.75967,-122.40103,2,2..5
14355,4355,De Haro St&22ND St NE-FS/PS,37.75744,-122.40082,0,0..2
14356,4356,De Haro St&23RD St NE-FS/PS,37.75489,-122.40057,6,5..10
14357,4357,De Haro St&Mariposa St SE-NS/SB,37.7635,-122.40137,23,20..50
14358,4358,De Haro St&Southern Heights Ave SE,37.75802,-122.40087,5,5..10
14371,4371,Diamond St&24TH St SE-NS/PS,37.75108,-122.43622,10,10..20
14372,4372,Diamond St&25TH St NW-NS/PS,37.74965,-122.43621,0,0..2
14373,4373,Diamond St&25TH St SE-NS/PS,37.74949,-122.43606,5,5..10
14386,4386,Diamond St&Bosworth St SE-NS/BZ,37.73351,-122.43415,,
14387,4387,Diamond St&Bosworth St SW-FS/BZ,37.73345,-122.43422,,
14407,4407,Divisadero St&Beach St NW-NS/SB,37.80377,-122.4437,21,20..50
14408,4408,Divisadero St&Bush St NE-FS/BZ,37.78628,-122.44,5,5..10
14409,4409,Divisadero St&California St NE-FS,37.78818,-122.44039,13,10..20
14410,4410,Divisadero St&California St SW-FS,37.78799,-122.4405,97,50..100
14411,4411,Divisadero St&Chestnut St NW-NS/BZ,37.80009,-122.44296,87,50..100
14412,4412,Divisadero St&Clay St NE-FS/BZ,37.78998,-122.44074,1,0..2
14413,4413,Divisadero St&Clay St NW-NS/BZ,37.78997,-122.44089,12,10..20
14414,4414,Divisadero St&Eddy St SE-NS/BZ,37.78059,-122.43894,17,10..20
14415,4415,Divisadero St&Eddy St SW-FS/BZ,37.78059,-122.43894,46,20..50
14418,4418,Divisadero St&Francisco St NW-NS/PS,37.80097,-122.44314,2,2..5
14421,4421,Divisadero St&Geary Blvd NE-FS/BZ,37.78338,-122.43941,48,20..50
14422,4422,Divisadero St&Geary Blvd SW-FS/BZ,37.78316,-122.43953,276,200..500
14423,4423,Divisadero St&Haight St NE-FS/BZ,37.77133,-122.43698,48,20..50
14424,4424,Divisadero St&Haight St SW-FS/BZ,37.77105,-122.4371,89,50..100
14425,4425,Divisadero St&Hayes St NE-FS/BZ,37.77506,-122.43774,63,50..100
14426,4426,Divisadero St&Hayes St SW-FS/BZ,37.77489,-122.43787,73,50..100
14427,4427,Divisadero St&Jackson St SE-NS/PS,37.79154,-122.44108,3,2..5
14428,4428,Divisadero St&McAllister St NE-FS,37.77786,-122.4383,54,50..100
14429,4429,Divisadero St&McAllister St SW-FS,37.77768,-122.43842,84,50..100
14430,4430,Divisadero St&North Point St NW-NS,37.80284,-122.44351,4,2..5
14431,4431,Divisadero St&Oak St NE-FS/BZ,37.77319,-122.43735,32,20..50
14432,4432,Divisadero St&Oak St SW-FS/BZ,37.77305,-122.43749,49,20..50
14433,4433,Divisadero St&Pine St SW-FS/BZ,37.787,-122.44032,41,20..50
14434,4434,Divisadero St&Sutter St NE-FS/BZ,37.78534,-122.43981,13,10..20
14435,4435,Divisadero St&Sutter St SW-FS/BZ,37.78515,-122.43994,67,50..100
14436,4436,Division St&Bryant St SE-FS/BZ,37.76934,-122.41074,9,5..10
14437,4437,Division St&Rhode Island St SW-NS,37.76976,-122.40315,9,5..10
14438,4438,Division St&Townsend St NE-NS/BZ,37.76989,-122.4033,48,20..50
14440,4440,Donahue St&Innes Ave E-FS/PS,37.729,-122.36991,5,5..10
14447,4447,Duboce Ave&Church St NW-FS/SI,37.76947,-122.42941,248,200..500
14451,4451,Duboce Ave&Noe St SW-NS/SB,37.76911,-122.4337,53,50..100
14456,4456,Earl St&Kirkwood Ave N-NS,37.72878,-122.37313,11,10..20
14482,4482,Eddy St&Larkin St SE-FS/BZ,37.78327,-122.41736,129,100..200
14490,4490,Eddy St&Polk St SE-FS/BZ,37.78306,-122.41902,81,50..100
14501,4501,The Embarcadero&Bay St E-FS/SI,37.80695,-122.40628,0,0..2
14502,4502,The Embarcadero&Bay St NW-NS/SI,37.80663,-122.40603,1,0..2
14503,4503,The Embarcadero&Broadway NE-FS/SI,37.79955,-122.39787,0,0..2
14504,4504,The Embarcadero&Broadway SW-FS/SI,37.7989,-122.39743,1,0..2
14506,4506,The Embarcadero&Brannan St S-FS/SI,37.78436,-122.38814,64,50..100
14508,4508,The Embarcadero&Folsom St NE-FS/BZ,37.79108,-122.3901,15,10..20
14509,4509,The Embarcadero&Folsom St S-FS/SI,37.79048,-122.38969,345,200..500
14510,4510,Embarcadero Folsom St N-NS/SI,37.79075,-122.38984,50,50..100
14511,4511,The Embarcadero&Folsom St SW-FS/SB,37.79056,-122.3899,11,10..20
14513,4513,The Embarcadero&Ferry Term E-MB/SI,37.79489,-122.39355,1,0..2
14515,4515,The Embarcadero&Greenwich St SE,37.80326,-122.40111,0,0..2
14517,4517,The Embarcadero&Green St NE-FS/SI,37.80126,-122.39937,0,0..2
14518,4518,The Embarcadero&Green St SW-FS/SI,37.80061,-122.39892,1,0..2
14519,4519,The Embarcadero&Howard St NE-FS/SB,37.79269,-122.39115,0,0..2
14520,4520,The Embarcadero&Howard St SW-FS/SB,37.79216,-122.39107,0,0..2
14529,4529,The Embarcadero&Sansome St SW-FS,37.80502,-122.40331,3,2..5
14530,4530,PIER 39,37.80835,-122.41029,0,0..2
14531,4531,The Embarcadero&Townsend St W-MB,37.7836,-122.38832,4,2..5
14532,4532,The Embarcadero&Washington St NE,37.79709,-122.39567,0,0..2
14534,4534,The Embarcadero&Washington St SW,37.79636,-122.39518,1,0..2
14547,4547,Evans Ave&3RD St S-FS/SB,37.74263,-122.38786,44,20..50
14548,4548,Evans Ave&Cesar Chavez St SE-NS/BZ,37.74907,-122.39689,11,10..20
14549,4549,Evans Ave&Cesar Chavez St SW-FS/BZ,37.74903,-122.39707,2,2..5
14550,4550,Evans Ave&Keith St E-NS/PS,37.73877,-122.3808,8,5..10
14551,4551,Evans Ave&Keith St W-NS/PS,37.73876,-122.38108,6,5..10
14552,4552,Evans Ave&Middle Point Rd W-NS/SB,37.73767,-122.37925,7,5..10
14553,4553,Evans Ave&Mendell St S-FS/BZ,37.7407,-122.38451,48,20..50
14555,4555,Evans Ave&Newhall St E-NS/SB,37.74195,-122.38641,13,10..20
14556,4556,Evans Ave&Napoleon St E-NS/PS,37.74726,-122.39588,7,5..10
14557,4557,Evans Ave&Napoleon St W-NS/PS,37.74734,-122.39626,4,2..5
14558,4558,Evans Ave&USPO NE-MB/BZ,37.74,-122.38297,23,20..50
14559,4559,Evans Ave&Phelps St E-NS/BZ,37.74299,-122.38831,74,50..100
14560,4560,Evans Ave&Phelps St W-NS/SB,37.74298,-122.3886,1,0..2
14561,4561,Evans Ave&Quint St N-FS/PS,37.74425,-122.39053,1,0..2
14562,4562,Evans Ave&Selby St S-FS/SB,37.74597,-122.39384,2,2..5
14564,4564,US Post Office S-FS/BZ,37.73972,-122.38281,39,20..50
14565,4565,909 Ellsworth St SW-NS/PS,37.73284,-122.41679,,
14566,4566,945 Ellsworth St SW-NS/PS,37.73281,-122.41776,,
14567,4567,989 Ellsworth St S-MB/SB,37.73262,-122.41893,,
14568,4568,Ellsworth St&Crescent Ave SE-NS/SB,37.73471,-122.41491,,
14581,4581,Felton St&Amherst St NE-NS,37.72702,-122.41634,5,5..10
14582,4582,Felton St&Amherst St SW-NS,37.72688,-122.41653,9,5..10
14583,4583,Felton St&Cambridge St NW-FS,37.7264,-122.41874,9,5..10
14584,4584,Felton St&Cambridge St SW-NS,37.72637,-122.41851,8,5..10
14587,4587,Felton St&Harvard St NE-NS,37.72597,-122.42028,3,2..5
14588,4588,Felton St&Harvard St SW-NS,37.72586,-122.42046,2,2..5
14589,4589,Felton St&Madison St N-MB,37.7256,-122.42204,7,5..10
14590,4590,Felton St&Madison St SE-FS,37.72543,-122.42211,2,2..5
14593,4593,Felton St&Peru Ave NE-NS,37.7252,-122.42324,3,2..5
14596,4596,Felton St&University St SW-NS,37.7274,-122.41457,3,2..5
14603,4603,Fillmore St&Bay St SE-NS/BZ,37.80259,-122.43668,281,200..500
14604,4604,Fillmore St&Broadway SE-NS/BZ,37.79416,-122.43484,11,10..20
14605,4605,Fillmore St&Broadway SW-FS/BZ,37.79381,-122.43488,17,10..20
14606,4606,Fillmore St&Beach St NW-NS/BZ,37.80442,-122.43713,3,2..5
14607,4607,Fillmore St&Beach St SE-NS/BZ,37.80445,-122.43696,25,20..50
14608,4608,Fillmore St&Chestnut St NE-FS/BZ,37.80109,-122.43623,35,20..50
14609,4609,Fillmore St&Chestnut St NW-NS/BZ,37.80089,-122.43647,233,200..500
14610,4610,Fillmore St&Cervantes Blvd NW-NS  ,37.80282,-122.43681,24,20..50
14611,4611,Fillmore St&Eddy St NE-FS/BZ,37.78173,-122.43233,69,50..100
14612,4612,Fillmore St&Eddy St NW-NS/BZ,37.78152,-122.4324,69,50..100
14613,4613,Fillmore St&Golden Gate Ave NE-FS,37.77986,-122.43196,98,50..100
14614,4614,Fillmore St&Geary Blvd NE-FS/BZ,37.78473,-122.43292,173,100..200
14615,4615,Fillmore St&Geary Blvd SW-FS/BZ,37.78398,-122.43291,270,200..500
14616,4616,Fillmore St&Grove St NE-FS/BZ,37.777,-122.43137,8,5..10
14617,4617,Fillmore St&Grove St NW-NS/BZ,37.77686,-122.43147,9,5..10
14618,4618,Fillmore St&Haight St NW-NS/BZ,37.7722,-122.43054,102,100..200
14620,4620,Fillmore St&Haight St SE-NS/BZ,37.77203,-122.43035,103,100..200
14621,4621,Fillmore St&Hayes St NE-FS/BZ,37.77611,-122.4312,33,20..50
14622,4622,Fillmore St&Hayes St SW-FS/BZ,37.7756,-122.43121,52,50..100
14623,4623,Fillmore St&Jackson St NE-FS/BZ,37.79276,-122.43456,46,20..50
14624,4624,Fillmore St&Jackson St SW-FS/BZ,37.79239,-122.43461,63,50..100
14625,4625,Fillmore St&Jefferson St SW-FS/BZ,37.80542,-122.43739,10,10..20
14626,4626,Fillmore St&Lombard St SE-NS/BZ,37.79971,-122.43595,4,2..5
14627,4627,Fillmore St&Lombard St SW-FS/BZ,37.7996,-122.43605,159,100..200
14628,4628,Fillmore St&McAllister St SE-NS/BZ,37.77854,-122.43169,134,100..200
14629,4629,Fillmore St&McAllister St SW-FS/BZ,37.77834,-122.43176,145,100..200
14630,4630,Fillmore St&North Point St SE-NS/PS,37.80355,-122.43679,21,20..50
14631,4631,Fillmore St&Oak St NE-FS/BZ,37.77427,-122.43083,34,20..50
14632,4632,Fillmore St&Oak St SW-FS/BZ,37.77376,-122.43087,34,20..50
14633,4633,Fillmore St&O'Farrell St SE-NS/BZ,37.78319,-122.43263,98,50..100
14634,4634,Fillmore St&O'Farrell St SW-FS/BZ,37.78302,-122.4327,234,200..500
14635,4635,Fillmore St&Pine St NE-FS/BZ,37.78805,-122.43357,24,20..50
14636,4636,Fillmore St&Pine St SW-FS/BZ,37.78772,-122.43366,88,50..100
14637,4637,Fillmore St&Sacramento St NW-NS/BZ,37.78993,-122.4341,183,100..200
14638,4638,Fillmore St&Sacramento St SE-NS/BZ,37.78974,-122.43395,76,50..100
14640,4640,Fillmore St&Sutter St SE-NS/BZ,37.78605,-122.43324,105,100..200
14641,4641,Fillmore St&Sutter St SW-FS/BZ,37.78581,-122.43327,133,100..200
14642,4642,Fillmore St&Turk St SW-FS/BZ,37.7802,-122.43214,98,50..100
14643,4643,Fillmore St&Union St NE-FS/BZ,37.79739,-122.43549,15,10..20
14645,4645,Fitzgerald Ave&Hawes St W-NS/PS,37.71992,-122.38959,10,10..20
14646,4646,Fitzgerald Ave&Ingalls St W-NS/PS,37.72097,-122.39145,14,10..20
14647,4647,Fitzgerald Ave&Jennings St W-NS/PS,37.72203,-122.39332,26,20..50
14648,4648,Fitzgerald Ave&Keith St S-FS/BZ,37.7229,-122.39484,142,100..200
14649,4649,Foerster St&Flood Ave SE-NS/PS,37.7298,-122.44877,7,5..10
14650,4650,Foerster St&Judson Ave NE-FS/BZ,37.72849,-122.44875,5,5..10
14662,4662,Folsom St&8TH St E-FS/BZ,37.77512,-122.40977,9,5..10
14663,4663,Folsom St&9TH St E-FS/BZ,37.77389,-122.41132,13,10..20
14664,4664,Folsom St&11TH St E-FS/BZ,37.77191,-122.41396,11,10..20
14665,4665,Folsom St&11TH St W-FS/BZ,37.77183,-122.41413,1,0..2
14666,4666,Folsom St&14TH St SW-FS/BZ,37.76846,-122.41567,16,10..20
14667,4667,Folsom St&14TH St SE-NS/BZ,37.76846,-122.41553,22,20..50
14668,4668,Folsom St&16TH St NE-FS/BZ,37.76557,-122.41525,7,5..10
14680,4680,Folsom St&25TH St NW-NS/PS,37.751,-122.41405,,
14681,4681,Folsom St&25TH St SE-NS/PS,37.75083,-122.41384,,
14686,4686,Folsom St&Bessie St NW-NS/PS,37.74687,-122.41362,,
14687,4687,Folsom St&Cortland Ave SE-NS/PS,37.73888,-122.4133,,
14688,4688,Folsom St&Cortland Ave SW-FS/PS,37.7388,-122.41337,,
14689,4689,Folsom St&Crescent Ave NE-FS/SB,37.73494,-122.41365,,
14690,4690,Folsom St&Crescent Ave NW-NS/PS,37.73483,-122.41372,,
14695,4695,Folsom St&Ogden Ave NE-FS/SB,37.73605,-122.41352,,
14696,4696,Folsom St&Ogden Ave SW-FS/PS,37.73579,-122.41364,,
14697,4697,Folsom St&Precita Ave SE-NS/PS,37.7471,-122.41349,,
14698,4698,Folsom St&Stoneman St NE-FS/SB,37.74532,-122.41336,,
14699,4699,Folsom St&Stoneman St NW-NS/SB,37.74521,-122.41345,,
14700,4700,Folsom St&Tompkins Ave NE-FS/PS,37.73718,-122.41344,,
14701,4701,Folsom St&Tompkins Ave NW-NS/PS,37.73716,-122.41352,,
14714,4714,Frederick St&Arguello Blvd NE-NS/PS,37.76606,-122.4576,14,10..20
14718,4718,Frederick St&Stanyan St NW-FS/BZ,37.76641,-122.45326,6,5..10
14719,4719,Frederick St&Willard St NW-FS/BZ,37.76621,-122.45491,7,5..10
14720,4720,Frederick St&Willard St SW-NS/BZ,37.76609,-122.4547,6,5..10
14725,4725,Fremont St&Market St E-NS/SI,37.79165,-122.39815,121,100..200
14726,4726,Ferry Plaza N-MB/BZ,37.79405,-122.39345,2,2..5
14727,4727,Ferry Plaza S-MB/BZ,37.79392,-122.39344,4,2..5
14730,4730,Fulton St&4TH Ave NW-FS/BZ,37.77395,-122.46166,3,2..5
14731,4731,Fulton St&4TH Ave SE-FS/BZ,37.77384,-122.46125,15,10..20
14732,4732,Fulton St&6TH Ave NW-FS/BZ,37.77364,-122.46385,105,100..200
14733,4733,Fulton St&6TH Ave SE-FS/BZ,37.77353,-122.46384,43,20..50
14734,4734,Fulton St&8TH Ave NW-FS/BZ,37.77347,-122.46605,62,50..100
14735,4735,Fulton St&8TH Ave SE-FS/BZ,37.77332,-122.46574,103,100..200
14736,4736,Fulton St&10TH Ave NW-FS/BZ,37.77335,-122.46839,9,5..10
14737,4737,Fulton St&10TH Ave SE-FS/BZ,37.77325,-122.46761,34,20..50
14742,4742,Fulton St&18TH Ave NW-FS/BZ,37.77296,-122.47678,4,2..5
14746,4746,Fulton St&22ND Ave NW-FS/BZ,37.77276,-122.48134,7,5..10
14747,4747,Fulton St&22ND Ave SE-FS/BZ,37.77266,-122.48061,28,20..50
14748,4748,Fulton St&25TH Ave NW-FS/BZ,37.77259,-122.48431,41,20..50
14749,4749,Fulton St&25TH Ave SE-FS/BZ,37.77255,-122.4841,61,50..100
14751,4751,Fulton St&28TH Ave SE-FS/BZ,37.77235,-122.48717,20,20..50
14753,4753,Fulton St&30TH Ave SE-FS/BZ,37.77224,-122.48919,26,20..50
14755,4755,Geary Blvd&Park Presidio Blvd NW-FS,37.78069,-122.47242,76,50..100
14756,4756,Geary Blvd&Park Presidio Blvd SW-NS,37.78053,-122.47268,285,200..500
14757,4757,Geary St&Powell St NW-FS/BZ,37.7874,-122.40839,350,200..500
14758,4758,Geary Blvd&Masonic Ave N-MB/BZ,37.78254,-122.44669,178,100..200
14760,4760,Geary Blvd&Scott St NE-NS/BZ,37.78385,-122.43776,20,20..50
14761,4761,Geary Blvd&Scott St SE-FS/BZ,37.78362,-122.43767,63,50..100
14762,4762,Geary Blvd&Spruce St NE-NS/BZ,37.78185,-122.45308,48,20..50
14763,4763,Geary Blvd&Spruce St SW-NS/BZ,37.7816,-122.45326,87,50..100
14764,4764,Geary Blvd&Stanyan Blvd SW-NS/BZ,37.78126,-122.45643,33,20..50
14765,4765,Geary Blvd&St Joseph's Ave SE-FS/BZ,37.7828,-122.44254,34,20..50
14766,4766,Geary St&Stockton St NE-NS/BB,37.78763,-122.40657,496,200..500
14767,4767,Geary St&Taylor St NW-FS/BZ,37.78698,-122.41168,132,100..200
14768,4768,Geary Blvd&Van Ness Ave NW-FS/BB,37.78575,-122.42158,443,200..500
14769,4769,Geary Blvd&Webster St NE-NS/BZ,37.78464,-122.43102,49,20..50
14771,4771,Academy of Sciences S-NS/BZ,37.77044,-122.46615,10,10..20
14772,4772,Golden Gate Park Museums N-NS/BZ,37.77053,-122.46893,23,20..50
14783,4783,Gilman Ave&3rd St E-NS/PS,37.72246,-122.39542,154,100..200
14784,4784,Gilman Ave&Griffith St W-NS/PS,37.71823,-122.38827,24,20..50
14785,4785,Gilman Ave&Ingalls St E-NS/SB,37.72035,-122.39173,32,20..50
14786,4786,Gilman Ave&Jennings St E-NS/PS,37.72141,-122.3936,39,20..50
14787,4787,Glen Park Station E-NS/SI,37.73253,-122.43342,18,10..20
14788,4788,Glen Park Station W-FS/SI,37.7324,-122.43386,10,10..20
14792,4792,Gennessee St&Flood Ave NW-NS/PS,37.72996,-122.45121,13,10..20
14795,4795,1650 Geneva Ave N-FS/BZ,37.71187,-122.42819,13,10..20
14796,4796,1650 Geneva Ave S-MB/PS,37.71174,-122.42829,9,5..10
14798,4798,1721 Geneva Ave NE-MB/PS,37.71108,-122.42627,16,10..20
14799,4799,1701 Geneva Ave S-FS/BZ,37.71072,-122.42576,17,10..20
14803,4803,Balboa Park BART Station NE-MB/BZ,37.7208,-122.44674,105,100..200
14805,4805,Balboa Park BART Station SW-MB/BZ,37.72095,-122.44738,305,200..500
14808,4808,Geneva Ave&Castillo St E-NS/PS,37.7079,-122.41823,2,2..5
14809,4809,Geneva Ave&Castillo St SW-MI/PS,37.7077,-122.41841,0,0..2
14810,4810,Geneva Ave&Cayuga Ave E-NS/BZ,37.71893,-122.44355,30,20..50
14811,4811,Geneva Ave&Cayuga Ave S-FS/BZ,37.71872,-122.44355,41,20..50
14817,4817,Kiska Rd&Reardon Rd NE-NS,37.73004,-122.37711,5,5..10
14818,4818,Kearny St&Bush St NE-FS/BZ,37.791,-122.40398,6,5..10
14819,4819,Kearny St&California St NE-FS/BZ,37.79288,-122.40436,11,10..20
14820,4820,Kearny St&Clay St NE-FS/BZ,37.7947,-122.40474,32,20..50
14821,4821,Kearny St&Geary St NE-FS/BZ,37.78805,-122.40346,971,500..1000
14822,4822,Kearny St&Jackson St SE-NS/BZ,37.79613,-122.40503,41,20..50
14823,4823,Kearny St&North Point St SE-NS/BZ,37.80718,-122.40721,263,200..500
14824,4824,Kearny St&Pacific Ave NE-FS/SB,37.79733,-122.40527,123,100..200
14826,4826,Kearny St&Sutter St SE-NS/BZ,37.78975,-122.40372,7,5..10
14827,4827,Kirkwood Ave&Dormitory Rd N-FS,37.72988,-122.37527,6,5..10
14838,4838,Lake Merced&Middlefield Dr NE-NS,37.72963,-122.4864,9,5..10
14839,4839,Lake Merced&Middlefield Dr SE-FS/SB,37.72944,-122.48629,9,5..10
14842,4842,La Playa St&Cabrillo St SE-NS/BZ,37.77321,-122.50999,2,2..5
14843,4843,La Playa St&Cabrillo St SW-FS/BZ,37.77321,-122.51006,156,100..200
14844,4844,La Playa St&Fulton St NE-FS/BZ,37.77169,-122.50984,10,10..20
14845,4845,Larkin St&Beach St SE-NS/SB,37.80635,-122.42208,1,0..2
14846,4846,Larkin St&Eddy St SE-NS/BZ,37.78323,-122.41742,93,50..100
14847,4847,Larkin St&Golden Gate Ave NE-FS/BZ,37.78169,-122.41711,71,50..100
14848,4848,Larkin St&Grove St NE-FS/BZ,37.7789,-122.41655,127,100..200
14851,4851,Larkin St&O'Farrell St SE-NS/BZ,37.78508,-122.41779,42,20..50
14852,4852,Lawton St&7th Ave NW-FS/PS,37.75861,-122.46409,11,10..20
14853,4853,Lawton St&7th Ave SW-NS/PS,37.75847,-122.46388,13,10..20
14854,4854,Lawton St&9th Ave NE-NS/PS,37.75852,-122.4658,12,10..20
14862,4862,Leavenworth St&Bush St SE-NS/BZ,37.78922,-122.41529,6,5..10
14863,4863,Leavenworth St&California St SE-NS,37.79109,-122.41567,4,2..5
14864,4864,Leavenworth St&Clay St SE-NS/BZ,37.79295,-122.41604,1,0..2
14865,4865,Leavenworth St&Geary St SE-NS/BZ,37.78643,-122.4147,16,10..20
14866,4866,Leavenworth St&Jackson St SE-NS/PS,37.79465,-122.41638,1,0..2
14867,4867,Leavenworth St&O'Farrell St SE-NS,37.7855,-122.41453,19,10..20
14868,4868,Leavenworth St&Pine St SE-NS/BZ,37.79015,-122.41548,1,0..2
14869,4869,Leavenworth St&Post St SE-NS/BZ,37.78736,-122.41488,12,10..20
14870,4870,Leavenworth St&Sacramento St SE-NS,37.79206,-122.41586,2,2..5
14871,4871,Leavenworth St&Sutter St SE-NS/BZ,37.78832,-122.4151,7,5..10
14876,4876,Laguna Honda Blvd&Balceta Ave E-NS,37.74537,-122.45709,1,0..2
14877,4877,Laguna Honda Blvd&Balceta Ave S-FS,37.74529,-122.45718,0,0..2
14878,4878,Laguna Honda Bl&Clarendon Ave SW-FS,37.75112,-122.46135,1,0..2
14881,4881,Geneva Ave&Howth St E-NS/BZ,37.72212,-122.44998,14,10..20
14882,4882,Geneva Ave&Howth St S-FS/PS,37.72198,-122.45007,15,10..20
14883,4883,Geneva Ave&Madrid St S-FS/BZ,37.71477,-122.43759,29,20..50
14884,4884,Geneva Ave&Madrid St N-FS/BZ,37.71514,-122.43803,47,20..50
14886,4886,Geneva Ave & Mission St E-NS/BZ,37.71647,-122.44087,228,200..500
14888,4888,Geneva Ave&Munich St W-NS/BZ,37.71295,-122.43303,76,50..100
14889,4889,Geneva Ave&Moscow St N-FS/BZ,37.71333,-122.43396,33,20..50
14890,4890,Geneva Ave&Naples St E-NS/BZ,37.71425,-122.43604,50,50..100
14891,4891,Geneva Ave&Naples St S-FS/BZ,37.71403,-122.43596,75,50..100
14892,4892,Geneva Ave&Paris St E-NS/PS,37.71571,-122.43931,1,0..2
14893,4893,Geneva Ave&Paris St W-NS/PS,37.71568,-122.43961,1,0..2
14894,4894,Geneva Ave&Prague St E-NS/BZ,37.71283,-122.43181,42,20..50
14895,4895,Geneva Ave&Rio Verde St SE-FS/BZ,37.70694,-122.41553,89,50..100
14898,4898,Geneva Ave&San Jose Ave S-MB/BZ,37.72073,-122.44669,6,5..10
14899,4899,Geneva Ave&Santos St E-NS/PS,37.70837,-122.41995,8,5..10
14900,4900,Geneva Ave&Santos St N-FS/BZ,37.70848,-122.42035,162,100..200
14905,4905,Gough St&Sacramento St NE-FS/BZ,37.79104,-122.42577,37,20..50
14908,4908,Grafton Ave&Capitol Ave SW-NS/PS,37.71995,-122.45929,30,20..50
14910,4910,Grafton Ave&Granada Ave SW-NS/SB,37.71996,-122.45725,10,10..20
14911,4911,Grafton Ave&Harold Ave NE-NS,37.72008,-122.453,1,0..2
14912,4912,Grafton Ave&Jules Ave SW-NS/PS,37.71995,-122.46133,15,10..20
14913,4913,Grafton Ave&Lee St SW-NS,37.71999,-122.45421,2,2..5
14915,4915,Grafton Ave&Plymouth Ave SW-NS/PS,37.71996,-122.45623,35,20..50
14934,4934,Gateview Ave&Bayside Dr NE-NS,37.82985,-122.37525,28,20..50
14935,4935,Gateview Ave&Mason Ct SW-FS/SB,37.82818,-122.37722,19,10..20
14936,4936,Gateview Ave&Northpoint Dr NE-MB,37.82982,-122.37348,29,20..50
14937,4937,Hahn St&Sunnydale Ave NE-FS/PS,37.71201,-122.4159,81,50..100
14938,4938,Hahn St&Sunnydale Ave N-NS/PS,37.71203,-122.41605,67,50..100
14940,4940,Haight St&Baker St NE-NS/BZ,37.77093,-122.44026,18,10..20
14941,4941,Haight St&Buchanan St NE-NS/BZ,37.77261,-122.42706,12,10..20
14942,4942,Haight St&Buchanan St SW-NS/BZ,37.77243,-122.42732,28,20..50
14943,4943,Haight St&Buena Vista East Ave S,37.77075,-122.44055,45,20..50
14946,4946,Haight St&Clayton St NE-NS/BZ,37.76989,-122.44847,23,20..50
14947,4947,Haight St&Clayton St SW-NS/BZ,37.76971,-122.44866,62,50..100
14950,4950,Haight St&Divisadero St NW-FS/BZ,37.77129,-122.43737,60,50..100
14951,4951,Haight St&Divisadero St SE-FS/BZ,37.77123,-122.43674,73,50..100
14952,4952,Haight St&Fillmore St NW-FS/BZ,37.77214,-122.43076,101,100..200
14953,4953,Haight St&Fillmore St SE-FS/BZ,37.7721,-122.43035,73,50..100
14954,4954,Haight St&Gough St NW-FS/BZ,37.77318,-122.42255,46,20..50
14955,4955,Haight St&Laguna St NW-FS/BZ,37.77276,-122.42584,18,10..20
14957,4957,Haight St&Masonic Ave NW-FS/BZ,37.77023,-122.44548,24,20..50
14958,4958,Haight St&Masonic Ave SE-FS/BZ,37.7702,-122.44529,112,100..200
14960,4960,Haight St&Pierce St NE-NS/BZ,37.77172,-122.43404,17,10..20
14961,4961,Haight St&Pierce St SW-NS/BZ,37.77161,-122.43385,30,20..50
14962,4962,Haight St&Stanyan St N-MB/BZ,37.76933,-122.45285,40,20..50
14963,4963,Haight St&Stanyan St SE-FS/BZ,37.76917,-122.45308,70,50..100
14964,4964,Hampshire St&24th St SE-NS/SB,37.75283,-122.40722,5,5..10
14968,4968,Harrison St&4th St W-FS/BZ,37.78067,-122.39991,25,20..50
14969,4969,Harrison St&5th St W-FS/BZ,37.77891,-122.40214,19,10..20
14970,4970,Harrison St&6th St W-FS/BZ,37.77715,-122.40436,63,50..100
14973,4973,Harrison St&9th St W-FS/BZ,37.7724,-122.41037,6,5..10
14976,4976,Hawes St&Gilman Ave S-NS/SB,37.7192,-122.39001,35,20..50
15017,5017,Hermann St&Fillmore St NE-NS/BZ,37.77031,-122.42993,17,10..20
15018,5018,Hermann St&Fillmore St SE-FS/BZ,37.77025,-122.4297,14,10..20
15029,5029,Holyoke St&Wayland St NW-NS,37.72522,-122.40812,2,2..5
15030,5030,Holyoke St&Wayland St SE-NS,37.72507,-122.40798,2,2..5
15034,5034,Holloway Ave&Beverly St SW-NS/SB,37.72161,-122.4718,6,5..10
15036,5036,Holloway Ave&Junipero Serra NW-FS,37.72159,-122.47295,2,2..5
15037,5037,Holloway Ave&Junipero Serra SW-NS,37.72149,-122.47271,4,2..5
15038,5038,Howth St&Geneva Ave W-FS,37.72193,-122.45028,2,2..5
15039,5039,Howth St&Mt Vernon Ave N-NS,37.71978,-122.45164,1,0..2
15040,5040,Howth St&Niagra Ave W-FS,37.72063,-122.4511,5,5..10
15041,5041,Hudson Ave&3rd St E-NS/BZ,37.74034,-122.38872,134,100..200
15042,5042,Hudson Ave&Ardath Ct NW-NS,37.73469,-122.38305,0,0..2
15043,5043,Hudson Ave&Cashmere St N-NS,37.73596,-122.38353,7,5..10
15044,5044,Hudson Ave&Ingalls St NW-FS/SB,37.7325,-122.37991,37,20..50
15045,5045,Hudson Ave&Ingalls St W-NS/PS,37.73239,-122.37969,8,5..10
15046,5046,Hudson Ave&Keith St N-FS,37.7377,-122.38412,6,5..10
15047,5047,Hudson Ave&Keith St W-NS,37.73759,-122.38416,2,2..5
15048,5048,Hudson Ave&Mendell St E-NS,37.73896,-122.38628,3,2..5
15049,5049,Hudson Ave&Mendell St W-NS,37.739,-122.38654,3,2..5
15050,5050,Hudson Ave&Whitney Young Cir SE-NS,37.73332,-122.38185,7,5..10
15051,5051,Hudson Ave&Whitney Young Cir SW-FS,37.73336,-122.38212,2,2..5
15065,5065,Hyde St&California St NW-NS/BZ,37.79111,-122.41747,12,10..20
15068,5068,Hyde St&Clay St NW-NS/BZ,37.79287,-122.41784,10,10..20
15071,5071,Hyde St&Grove St SW-FS/BZ,37.77936,-122.41514,37,20..50
15079,5079,Hyde St&Mcallister St NW-NS/BZ,37.78078,-122.41542,61,50..100
15084,5084,Hyde St&Pine St NW-NS/BZ,37.79017,-122.4173,9,5..10
15087,5087,Hyde St&Turk St NW-NS/BZ,37.78265,-122.4158,164,100..200
15092,5092,Industrial St&Bayshore Blvd NE-NS,37.73815,-122.40654,15,10..20
15093,5093,Industrial St&Bayshore Blvd SE-FS,37.73794,-122.40678,16,10..20
15094,5094,Industrial St&Elmira St SE-FS/SB,37.73879,-122.40373,3,2..5
15095,5095,Industrial St&Palou Ave S-NS/PS,37.73955,-122.40101,8,5..10
15096,5096,Industrial St&Revere Ave NE-NS/SB,37.73913,-122.40305,11,10..20
15097,5097,Innes Ave&Earl St E-NS/SB,37.72988,-122.37187,3,2..5
15098,5098,Innes Ave&Earl St W-NS/PS,37.72987,-122.37213,0,0..2
15099,5099,Innes Ave&Fitch St E-NS/PS,37.73094,-122.37376,5,5..10
15100,5100,Innes Ave&Fitch St W-NS//PS,37.73093,-122.37404,1,0..2
15101,5101,Innes Ave&Griffith St E-NS/PS,37.732,-122.37561,14,10..20
15102,5102,Innes Ave&Griffith St W-NS/SB,37.73199,-122.37588,1,0..2
15103,5103,Innes Ave&Hunters Point Blvd N-FS,37.73292,-122.37723,17,10..20
15104,5104,Innes Ave&Hunters Point Blvd W-NS,37.73271,-122.37717,1,0..2
15106,5106,Ingalls St&Beatrice Ln W-FS,37.73058,-122.38034,1,0..2
15107,5107,Ingalls St&Harbor Rd NW-NS/PS,37.73347,-122.38002,20,20..50
15108,5108,Ingalls St&Harbor Rd SE-NS/PS,37.7333,-122.37984,3,2..5
15110,5110,Ingalls St&Revere Ave S-NS,37.72837,-122.3846,25,20..50
15111,5111,Ingalls St&Thomas Ave N-NS,37.72735,-122.38563,13,10..20
15112,5112,Ingalls St&Thomas Ave S-NS,37.72711,-122.38572,4,2..5
15113,5113,Ingalls St&Van Dyke Ave E-FS,37.72604,-122.38669,3,2..5
15114,5114,Ingalls St&Van Dyke Ave N-NS,37.72611,-122.38677,13,10..20
15115,5115,Ingerson Ave&Griffith St E-MI/SB,37.71701,-122.38921,5,5..10
15116,5116,Ingerson Ave&Hawes St E-NS/SB,37.71804,-122.391,34,20..50
15118,5118,Irving St&2nd Ave NE-NS,37.76444,-122.45864,96,50..100
15124,5124,Irving St&Arguello Blvd SW-NS,37.76437,-122.45802,189,100..200
15134,5134,Junipero Serra Blvd&Brotherhd NE-FS,37.71355,-122.47126,4,2..5
15135,5135,J. Serra at S. F. Golf Club SW-FS,37.71071,-122.47132,3,2..5
15136,5136,Junipero Serra Blvd & Font Blvd NW,37.71463,-122.47191,36,20..50
15138,5138,Ocean Ave&Junipero Serra Blvd SE-FS,37.73136,-122.47167,1,0..2
15140,5140,Junipero Serra Blvd&Palmetto Av FS,37.71091,-122.47099,15,10..20
15141,5141,Junipero Serra&Sloat Blvd SW-FS/BZ,37.73431,-122.47168,9,5..10
15145,5145,Jackson St&Divisadero St NE-NS/PS,37.79172,-122.44089,21,20..50
15147,5147,Jackson St&Fillmore St NW-FS/BZ,37.79253,-122.43468,72,50..100
15151,5151,Jackson St&Hyde St NW-FS/PS,37.79461,-122.41829,1,0..2
15158,5158,Jackson St&Polk St NE-NS/PS,37.79419,-122.42129,0,0..2
15160,5160,Jackson St&Scott St NE-NS/PS,37.79193,-122.43924,7,5..10
15161,5161,Jackson St&Scott St SW-NS/PS,37.79177,-122.43961,1,0..2
15162,5162,Jackson St&Steiner St NE-NS/AB,37.79235,-122.43611,3,2..5
15163,5163,Jackson St&Steiner St SW-NS/BZ,37.7922,-122.43632,2,2..5
15165,5165,Jackson St&Van Ness Ave NE-NS/BZ,37.794,-122.42287,49,20..50
15166,5166,Jackson St&Van Ness Ave NW-FS/BZ,37.79395,-122.42315,48,20..50
15167,5167,Jackson St&Webster St NW-FS/BZ,37.79272,-122.43303,150,100..200
15171,5171,Judson Ave&Gennessee St NW-FS/SB,37.72842,-122.45129,7,5..10
15172,5172,Judson Ave&Gennessee St SW-NS/SB,37.7283,-122.45123,4,2..5
15173,5173,Jefferson St&Divisadero St SW-NS/PS,37.80456,-122.44389,1,0..2
15174,5174,Jefferson St&Powell St NW-FS/PS,37.80859,-122.41336,0,0..2
15175,5175,Jefferson St&Taylor St NE-NS/PS,37.80832,-122.41551,0,0..2
15184,5184,Jones St&Beach St NW-NS/PS,37.80713,-122.41732,32,20..50
15185,5185,Jones St&Geary St NW-NS/BZ,37.78686,-122.41325,9,5..10
15186,5186,Jones St&Post St NW-NS/BZ,37.78781,-122.41344,7,5..10
15187,5187,Jones St&Sutter St NW-NS/BZ,37.78869,-122.41361,15,10..20
15189,5189,Judah St&5th Ave SW-NS/PS,37.7623,-122.462,6,5..10
15190,5190,Judah St&6th Ave NE-NS/PS,37.7624,-122.46285,5,5..10
15191,5191,Judah St&7th Ave NW-FS/BZ,37.76233,-122.46435,6,5..10
15192,5192,Judah St&7th Ave SW-NS/BZ,37.7622,-122.46414,9,5..10
15193,5193,Judah St&9th Ave NW-FS/SI,37.76223,-122.46669,92,50..100
15194,5194,Judah St&9th Ave SW-NS/SI,37.76214,-122.46631,87,50..100
15195,5195,Judah St&12th Ave NE-NS/SI,37.76207,-122.46932,20,20..50
15196,5196,Judah St&12th Ave SW-NS/SI,37.76199,-122.46953,23,20..50
15197,5197,Judah St&15th Ave SW-NS/SI,37.76185,-122.47278,41,20..50
15198,5198,Judah St&16th Ave N-MI/SI,37.76194,-122.47363,10,10..20
15199,5199,Judah St&19th Ave NE-NS/SI,37.76174,-122.47692,44,20..50
15200,5200,Judah St&19th Ave SW-NS/SI,37.76166,-122.47719,168,100..200
15201,5201,Judah St&22nd Ave SE-FS/SI,37.76153,-122.47986,79,50..100
15202,5202,Judah St&23rd Ave NE-NS/SI,37.76155,-122.48116,64,50..100
15203,5203,Judah St&25th Ave NE-NS/SI,37.76145,-122.4833,59,50..100
15204,5204,Judah St&25th Ave SW-NS/SI,37.76137,-122.48356,86,50..100
15205,5205,Judah St&28th Ave NE-NS/SI,37.76131,-122.48651,13,10..20
15206,5206,Judah St&28th Ave SW-NS/SI,37.76123,-122.48676,57,50..100
15207,5207,Judah St&31st Ave NE-NS/SI,37.76117,-122.48972,11,10..20
15208,5208,Judah St&31st Ave SE-FS/SI,37.76111,-122.4895,71,50..100
15209,5209,Judah St&34th Ave NE-NS/SI,37.76103,-122.49293,7,5..10
15210,5210,Judah St&34th Ave SW-NS/SI,37.76096,-122.4932,44,20..50
15211,5211,Judah St&40th Ave NE-NS/SI,37.76074,-122.49936,13,10..20
15212,5212,Judah St&40th Ave SE-FS/SI,37.76068,-122.49915,89,50..100
15213,5213,Judah St&43rd Ave NE-NS/SI,37.7606,-122.50257,6,5..10
15214,5214,Judah St&43rd Ave SW-NS/SI,37.76052,-122.50284,119,100..200
15215,5215,Judah St&46th Ave NE-NS/SI,37.76049,-122.50583,14,10..20
15216,5216,Judah St&46th Ave SW-NS/SI,37.76039,-122.50606,187,100..200
15219,5219,Judah St&Funston Ave NE-NS,37.76208,-122.47033,6,5..10
15220,5220,Judah St&Funston Ave SW-NS,37.76195,-122.47057,13,10..20
15221,5221,Judah &La Playa St NE-NS,37.76036,-122.50901,53,50..100
15223,5223,Judah St&La Playa St SE-FS,37.7603,-122.50818,220,200..500
15224,5224,Judah St&Sunset Blvd NE-NS/SI,37.76092,-122.49567,34,20..50
15225,5225,Judah St&Sunset Blvd SW-NS/SI,37.76085,-122.49581,92,50..100
15227,5227,Kansas St&23rd St IB SE-NS/BZ,37.75443,-122.40249,27,20..50
15228,5228,Kansas St&25th St SE-NS/PS,37.75189,-122.40222,5,5..10
15229,5229,Kansas St&26th St NE-FS/SB,37.75083,-122.40212,6,5..10
15232,5232,Keith St&Oakdale Ave N-NS/PS,37.73258,-122.38663,3,2..5
15233,5233,Keith St&Oakdale Ave S-NS/PS,37.73237,-122.38661,2,2..5
15234,5234,King St&2nd St S-FS/SI,37.77972,-122.38987,98,50..100
15235,5235,King St&2nd St S-NS,37.7796,-122.38955,34,20..50
15236,5236,King St&2nd St W-FS/SB,37.7798,-122.38994,9,5..10
15237,5237,King St&2nd St W-NS/SI,37.77962,-122.38982,38,20..50
15242,5242,Kiska Rd&Ingalls St E-NS,37.73108,-122.37939,8,5..10
15243,5243,Laguna Honda Bl.&Clarendon Ave E-MB,37.75071,-122.46092,6,5..10
15244,5244,Laguna Honda Blvd&Dewey Blvd E-NS,37.74723,-122.45908,4,2..5
15245,5245,Forest Hill Station NE-FS/PS,37.74833,-122.45884,38,20..50
15247,5247,Forest Hill Station NW NS/SB,37.74821,-122.45891,64,50..100
15249,5249,Laguna Honda Blvd&Idora Ave E-NS/SB,37.744,-122.45641,0,0..2
15250,5250,Laguna Honda Blvd&Idora Ave W-NS/SB,37.74415,-122.45663,1,0..2
15253,5253,Laguna Honda Blvd&Noriega St SW-FS,37.75465,-122.4638,1,0..2
15254,5254,Laguna Honda Blvd&Portola Dr W-NS,37.74311,-122.45548,10,10..20
15255,5255,Laguna Honda Blvd&Ulloa St E-NS/BZ,37.74347,-122.45578,13,10..20
15256,5256,Laguna Honda Blvd&Vasquez Ave S-FS,37.74602,-122.45816,2,2..5
15263,5263,Lincoln Blvd&Bowley St SE-NS/SB,37.78839,-122.48246,8,5..10
15269,5269,Lincoln Blvd&Pershing Dr SE-NS/SB,37.79209,-122.48097,2,2..5
15272,5272,Lombard St&Divisadero St SW-NS/BZ,37.79888,-122.44274,4,2..5
15273,5273,Lombard St&Divisadero St NW-FS/BZ,37.79908,-122.44286,3,2..5
15274,5274,Lombard St&Fillmore St SW-NS/BZ,37.79971,-122.43613,9,5..10
15275,5275,Lombard St&Fillmore St NE-NS/BZ,37.79988,-122.43596,2,2..5
15280,5280,Lombard St&Laguna St NE-NS/SB,37.80057,-122.43101,1,0..2
15281,5281,Lombard St&Laguna St SW-NS/SB,37.80037,-122.43121,1,0..2
15284,5284,Lombard St&Pierce St SW-NS/BZ,37.79929,-122.43942,3,2..5
15285,5285,Lombard St&Pierce St NE-NS/BZ,37.79954,-122.43919,1,0..2
15288,5288,La Salle Ave&Ingalls St NE-FS,37.73077,-122.3814,4,2..5
15289,5289,La Salle Ave&Newcomb Ave E-NS,37.73298,-122.38479,2,2..5
15290,5290,La Salle Ave&Osceola Dr SE-NS,37.73137,-122.38172,,
15291,5291,Louisburg St&Geneva Ave S-NS,37.72163,-122.44935,3,2..5
15292,5292,Louisburg St&Niagra Ave S-NS,37.72039,-122.45013,3,2..5
15295,5295,Lincoln Way&3rd Ave SW-NS/BZ,37.76612,-122.46014,5,5..10
15296,5296,Lincoln Way&5th Ave NW-FS/BZ,37.76618,-122.46246,6,5..10
15297,5297,Lincoln Way&5th Ave SE-FS/BZ,37.76605,-122.46189,8,5..10
15300,5300,Lincoln Way&9th Ave NW-FS/BZ,37.766,-122.46675,58,50..100
15301,5301,Lincoln Way&9th Ave SE-FS/BZ,37.76586,-122.46623,51,50..100
15304,5304,Lincoln Way&15th Ave NW-FS/BZ,37.76572,-122.47322,2,2..5
15305,5305,Lincoln Way&15th Ave SW-NS/BZ,37.76556,-122.47305,4,2..5
15306,5306,Lincoln Way&17th Ave NW-FS/BZ,37.76562,-122.47542,1,0..2
15307,5307,Lincoln Way&17th Ave SW-NS/BZ,37.76546,-122.47524,12,10..20
15309,5309,Lincoln Way&19th Ave NW-FS/BZ,37.76553,-122.47761,36,20..50
15310,5310,Lincoln Way&21st Ave NW-FS/BZ,37.76543,-122.4797,11,10..20
15311,5311,Lincoln Way&21st Ave SW-NS/BZ,37.76529,-122.47949,14,10..20
15312,5312,Lincoln Way&23rd Ave NW-FS/BZ,37.76533,-122.48184,14,10..20
15313,5313,Lincoln Way&23rd Ave SW-NS/BZ,37.7652,-122.48163,13,10..20
15314,5314,Lincoln Way&25th Ave NW-FS/BZ,37.76522,-122.48399,32,20..50
15315,5315,Lincoln Way&25th Ave SE-FS/BZ,37.76511,-122.48336,18,10..20
15316,5316,Lincoln Way&27th Ave NW-FS/BZ,37.76513,-122.48614,3,2..5
15317,5317,Lincoln Way&27th Ave SE-FS/BZ,37.76502,-122.48551,7,5..10
15318,5318,Lincoln Way&29th Ave NW-FS/BZ,37.76503,-122.48827,2,2..5
15319,5319,Lincoln Way&30th Ave SE-FS/BZ,37.76488,-122.48871,12,10..20
15320,5320,Lincoln Way&31st Ave NW-FS/BZ,37.76494,-122.49042,4,2..5
15321,5321,Lincoln Way&33rd Ave NW-FS/BZ,37.76484,-122.49257,3,2..5
15323,5323,Lincoln Way&35th Ave NW-FS/BZ,37.76475,-122.49471,1,0..2
15325,5325,Lincoln Way&Arguello Blvd SW-NS/BZ,37.76598,-122.45796,11,10..20
15326,5326,Lincoln Way&Funston Ave NW-FS/BZ,37.76581,-122.47103,8,5..10
15327,5327,Lincoln Way&Funston Ave SW-NS/BZ,37.76565,-122.47086,25,20..50
15330,5330,Lyell St&Alemany Blvd NW-NS/PS,37.73064,-122.43133,11,10..20
15331,5331,Lyon St&Greenwich St SW-FS/BZ,37.79743,-122.44721,157,100..200
15335,5335,Main St&Mission St N-FS/BZ,37.79199,-122.39503,85,50..100
15336,5336,Main St&Market St NE-MB/BB,37.79253,-122.39567,15,10..20
15337,5337,Mansell St&Brussels St NW-MI/PS,37.7211,-122.40307,4,2..5
15338,5338,Mansell St&Brussels St S-NS/PS,37.72093,-122.40312,1,0..2
15339,5339,Mansell St&Dartmouth St N-NS/PS,37.71958,-122.40889,3,2..5
15340,5340,Mansell St&Dartmouth St S-NS/PS,37.71938,-122.40906,3,2..5
15341,5341,Mansell St&Goettingen St S-NS/PS,37.72068,-122.4041,3,2..5
15342,5342,Mansell St&Goettingen St W-FS/PS,37.72077,-122.40434,3,2..5
15343,5343,Mansell St&Hamilton St N-NS/BZ,37.7201,-122.40692,22,20..50
15344,5344,Mansell St&Hamilton St S-NS/PS,37.71989,-122.40709,11,10..20
15345,5345,Mansell St&John F Shelley Dr NW-FS/PS,37.71812,-122.41446,,
15346,5346,Mansell St&John F Shelley Dr--2  SW-NS/PS,37.71804,-122.41426,0,0..2
15347,5347,Mansell St&John F Shelley Dr NW-FS/SB,37.7189,-122.4188,2,2..5
15348,5348,Mansell St&John Shelley --1 Dr SW-NS/PS,37.71872,-122.41863,0,0..2
15349,5349,Mansell St&San Bruno Ave S-NS/PS,37.72144,-122.40115,4,2..5
15350,5350,Mansell St&San Bruno Ave W-FS/BZ,37.72154,-122.40139,185,100..200
15351,5351,Mansell St&Somerset St S-NS/PS,37.72042,-122.40509,5,5..10
15352,5352,Mansell St&Somerset St W-FS/PS,37.72053,-122.40512,16,10..20
15353,5353,Mansell St&University St W-FS/PS,37.71896,-122.41126,14,10..20
15354,5354,Mansell St&Visitacion Ave E-FS/PS,37.71877,-122.41136,5,5..10
15384,5384,McAllister St&Baker St NE-NS/BZ,37.7774,-122.44166,31,20..50
15385,5385,McAllister St&Baker St SW-NS/BZ,37.77731,-122.44185,125,100..200
15389,5389,McAllister St&Divisadero St NE-NS,37.77783,-122.43829,68,50..100
15390,5390,McAllister St&Divisadero St SW-NS,37.77773,-122.43851,181,100..200
15391,5391,McAllister St&Fillmore St NW-FS/BZ,37.77864,-122.43207,153,100..200
15392,5392,McAllister St&Fillmore St SE-FS/BZ,37.77862,-122.43174,236,200..500
15393,5393,McAllister St&Gough St NW-FS/BZ,37.77971,-122.42388,65,50..100
15394,5394,McAllister St&Gough St SE-FS/BZ,37.77963,-122.42325,85,50..100
15395,5395,McAllister St&Hyde St NW-FS/BZ,37.78073,-122.41569,231,200..500
15396,5396,McAllister St&Hyde St S-MB/PS,37.78061,-122.41587,54,50..100
15397,5397,McAllister St&Larkin St NW-FS/BZ,37.78051,-122.41741,125,100..200
15398,5398,McAllister St&Laguna St NW-FS/BZ,37.7793,-122.42717,50,50..100
15399,5399,McAllister St&Laguna St SE-FS/BZ,37.77919,-122.42678,137,100..200
15400,5400,McAllister St&Pierce St NE-NS/BZ,37.77824,-122.43505,21,20..50
15401,5401,McAllister St&Pierce St SW-NS/BZ,37.77815,-122.43519,35,20..50
15404,5404,McAllister St&Van Ness Ave NW-FS/BZ,37.78009,-122.42071,191,100..200
15405,5405,McAllister St&Van Ness Ave SE-FS/BZ,37.78005,-122.42018,59,50..100
15418,5418,METRO TERMINAL-NS/SI,37.72181,-122.44743,82,50..100
15432,5432,Monterey Blvd&Foerster St NW-FS/BZ,37.73162,-122.44917,23,20..50
15434,5434,Monterey Blvd&Gennessee St SW-NS/BZ,37.73147,-122.45124,30,20..50
15435,5435,Monterey Blvd&Gennessee St NW-FS/BZ,37.73162,-122.45145,8,5..10
15437,5437,Monterey Blvd&Plymouth Ave NE-NS/PS,37.73112,-122.45732,2,2..5
15439,5439,Monterey Blvd&Ridgewood Ave NE-NS,37.73162,-122.45329,3,2..5
15440,5440,Monterey Blvd&Ridgewood Ave SE-FS,37.73147,-122.45308,9,5..10
15444,5444,Monterey Blvd&Valdez Ave NE-NS/SB,37.73145,-122.45565,2,2..5
15445,5445,Monterey Blvd&Valdez Ave SW-NS/SB,37.73127,-122.45583,1,0..2
15446,5446,Mt Vernon Ave&Howth St W-NS,37.71969,-122.45177,1,0..2
15447,5447,Mt Vernon Ave&Louisburg St W-NS,37.71937,-122.45094,0,0..2
15458,5458,North Point St&Hyde St NE-NS/BZ,37.8058,-122.42023,21,20..50
15459,5459,North Point St&Hyde St SW-NS/BZ,37.80563,-122.42047,21,20..50
15460,5460,North Point St&Jones St NW-FS/BZ,37.80617,-122.41741,55,50..100
15461,5461,North Point St&Jones St SW-NS/BZ,37.80605,-122.41718,10,10..20
15462,5462,North Point St&Kearny St NW-FS/BZ,37.80735,-122.4079,16,10..20
15464,5464,North Point St&Larkin St NE-NS/BZ,37.80559,-122.42189,12,10..20
15465,5465,North Point St&Larkin St SW-NS/BZ,37.80541,-122.42211,22,20..50
15466,5466,North Point St&Mason St NW-FS/BZ,37.80656,-122.41424,179,100..200
15467,5467,North Point St&Mason St SE-FS/BZ,37.80652,-122.41346,23,20..50
15468,5468,North Point St&Polk St NW-FS/BZ,37.80531,-122.42399,43,20..50
15469,5469,North Point St&Polk St SE-FS/BZ,37.80524,-122.42349,30,20..50
15470,5470,North Point St&Stockton St NE-NS/BZ,37.80704,-122.41038,79,50..100
15472,5472,North Point St&Van Ness Ave SE-FS ,37.80505,-122.42495,131,100..200
15474,5474,Naples St&Athens St E-FS/PS,37.71246,-122.43735,15,10..20
15475,5475,Naples St&Brunswick St NW-NS/SB,37.7118,-122.43799,1,0..2
15477,5477,Naples St&Curtis St N-NS/SB,37.71108,-122.4385,1,0..2
15480,5480,Naples St&Geneva Ave W-FS/SB,37.71415,-122.4364,6,5..10
15482,5482,Naples St&Rolph St S-NS/PS,37.71346,-122.43663,20,20..50
15483,5483,Naples St&Rolph St W-FS/SB,37.71348,-122.43679,4,2..5
15485,5485,Naples St&Seville St SE-NS/SB,37.71167,-122.4379,5,5..10
15486,5486,Newcomb Ave&Keith St N-NS/SB,37.73315,-122.38598,8,5..10
15487,5487,Newcomb Ave&Keith St S-FS/SB,37.733,-122.38605,3,2..5
15488,5488,Newcomb Ave&La Salle Ave E-FS/PS,37.73304,-122.38486,6,5..10
15489,5489,Newcomb Ave&La Salle Ave N-NS/PS,37.7332,-122.38505,31,20..50
15490,5490,Newcomb Ave&Newhall St E-NS/SB,37.7363,-122.39152,53,50..100
15491,5491,Newhall St&Oakdale Ave N-NS/SB,37.7358,-122.39218,25,20..50
15500,5500,Middle Point Rd&Innes Ave NW-NS/PS,37.73417,-122.37954,4,2..5
15501,5501,Middle Point Rd & Acacia,37.73701,-122.37932,18,10..20
15503,5503,Middle Point Rd&West Point Rd SE-NS,37.73516,-122.37932,17,10..20
15504,5504,Middle Point Rd&West Point Rd SW-FS,37.73502,-122.37947,51,50..100
15505,5505,Mendell St&Cargo Way S-NS/SB,37.7437,-122.38317,0,0..2
15507,5507,Mendell St&Newhall St NE-FS/SB,37.74254,-122.3837,,
15508,5508,Mendell St&Newhall St NW-NS/SB,37.74253,-122.38393,,
15509,5509,US Post Office E-FS/SB,37.74106,-122.38444,2,2..5
15510,5510,US Post Office N-NS/SB,37.74106,-122.38468,1,0..2
15511,5511,Fort Miley Hospital N-NS,37.78183,-122.50411,122,100..200
15513,5513,126 Miraloma Dr SW-FS/SB,37.73774,-122.46146,0,0..2
15514,5514,Miraloma Dr&Bengal Aly SE-NS/SB,37.73787,-122.46131,1,0..2
15515,5515,Miraloma Dr&Juanita Way NW-NS/SB,37.73938,-122.46008,1,0..2
15516,5516,Miraloma Dr&Juanita Way S-NS/SB,37.7392,-122.46003,1,0..2
15517,5517,Miraloma Dr&Marne Ave SW-NS/PS,37.74008,-122.45922,1,0..2
15518,5518,Miraloma Dr&Marne Ave W-FS/SB,37.74021,-122.45927,2,2..5
15519,5519,Miraloma Dr&Yerba Buena Ave NW-NS,37.73551,-122.4608,3,2..5
15528,5528,Mission St&1st St N-NS/BZ,37.78992,-122.39749,233,200..500
15529,5529,Mission St&2nd St W-FS/BZ,37.78775,-122.40024,204,200..500
15530,5530,Mission St&2nd St S-NS/BZ,37.78787,-122.39985,9,5..10
15531,5531,Mission St&3rd St E-FS/BZ,37.78651,-122.40157,67,50..100
15532,5532,Mission St&3rd St W-FS/BZ,37.78597,-122.40249,82,50..100
15533,5533,Mission St&4th St E-FS/BZ,37.78464,-122.40393,111,100..200
15534,5534,Mission St&4th St W-FS/BZ,37.78436,-122.40452,"1,015",1000..
15535,5535,Mission St&5th St S-NS/BZ,37.78272,-122.40653,91,50..100
15536,5536,Mission St&5th St W-FS/BZ,37.78273,-122.40664,496,200..500
15537,5537,Mission St&6th St E-FS/BZ,37.78119,-122.40831,125,100..200
15538,5538,Mission St&6th St W-FS/BZ,37.78075,-122.4091,417,200..500
15539,5539,Mission St&7th St W-FS/BZ,37.77897,-122.41135,377,200..500
15540,5540,Mission St&8th St W-FS/BZ,37.77723,-122.41355,468,200..500
15541,5541,Mission St&8th St E-FS/BZ,37.7777,-122.41273,174,100..200
15542,5542,Mission St&9th St E-FS/BZ,37.77645,-122.41431,152,100..200
15543,5543,Mission St&9th St W-FS/BZ,37.77594,-122.41518,213,200..500
15544,5544,Mission St&11th St S-NS/BZ,37.77432,-122.41712,119,100..200
15545,5545,Mission St&11th St W-FS/BZ,37.77431,-122.41729,248,200..500
15546,5546,Mission St&13th St NE-FS/BZ,37.77047,-122.41978,110,100..200
15547,5547,Mission St&14th St NE-FS/BZ,37.76862,-122.41993,233,200..500
15548,5548,Mission St&14th St SW-FS/BZ,37.7678,-122.42002,220,200..500
15551,5551,Mission St&16th St NE-FS/BZ,37.76513,-122.41967,579,500..1000
15552,5552,Mission St&16th St SW-FS/BB,37.76504,-122.41973,967,500..1000
15553,5553,Mission St&18th St NE-FS/BZ,37.76264,-122.41935,312,200..500
15554,5554,Mission St&18th St SW-FS/BZ,37.76176,-122.41946,361,200..500
15557,5557,Mission St&20th St NE-FS/BZ,37.75911,-122.41902,346,200..500
15558,5558,Mission St&20th St SW-FS/BZ,37.75817,-122.41909,381,200..500
15561,5561,Mission St&22nd St NE-FS/BB,37.75582,-122.41871,289,200..500
15562,5562,Mission St&22nd St SW-FS/BB,37.75517,-122.4188,119,100..200
15565,5565,Mission St&24th St NE-FS/BB,37.75236,-122.4184,729,500..1000
15566,5566,Mission St&24th St SW-FS/BB,37.75196,-122.41853,833,500..1000
15567,5567,Mission St&26th St NE-FS/BZ,37.74951,-122.4181,237,200..500
15568,5568,Mission St&26th St SW-FS/BZ,37.74857,-122.41818,153,100..200
15571,5571,Mission St&30th St NE-FS/BB,37.74241,-122.42195,334,200..500
15572,5572,Mission St&30th St NW-NS/BB,37.74242,-122.42199,313,200..500
15573,5573,4080 Mission St NW-MB/BZ,37.73217,-122.428,6,5..10
15574,5574,Mission St&Acton St E-FS/BZ,37.70881,-122.45258,299,200..500
15575,5575,Mission St&Allison St S-NS/BZ,37.71448,-122.44264,56,50..100
15577,5577,Mission St&Appleton Ave E-FS/BZ,37.73887,-122.42387,13,10..20
15578,5578,Mission St&Appleton Ave N-NS/BZ,37.73899,-122.42404,13,10..20
15579,5579,Mission St&Beale St W-FS/BZ,37.79114,-122.39592,22,20..50
15580,5580,Mission St&Bosworth St SW-FS/BZ,37.73334,-122.42682,27,20..50
15583,5583,Mission St&Cortland Ave E-FS/BZ,37.74105,-122.42276,104,100..200
15584,5584,Mission St&Cortland Ave NW-NS/BB,37.74108,-122.42287,72,50..100
15585,5585,Mission St&Evergreen St E-FS/BB,37.70741,-122.45653,312,200..500
15586,5586,Mission St&Excelsior Ave E-FS/BZ,37.72636,-122.43351,190,100..200
15588,5588,Mission St&Flournoy St N-NS/PS,37.70682,-122.45906,25,20..50
15589,5589,Mission St&Foote Ave N-NS/BZ,37.71285,-122.44462,31,20..50
15590,5590,Mission St&Francis St W-FS/BZ,37.72635,-122.43365,78,50..100
15592,5592,Mission St&Geneva Ave W-FS/BB,37.71646,-122.44115,357,200..500
15593,5593,Mission St&Geneva Ave E-FS/BB,37.71664,-122.44078,835,500..1000
15594,5594,Mission St&Goethe St N-NS/BB,37.70736,-122.45708,50,50..100
15595,5595,Mission St&Guttenberg St NE-FS/BZ,37.71251,-122.44475,75,50..100
15596,5596,Mission St&Highland Ave NE-FS/BZ,37.73745,-122.42396,50,50..100
15597,5597,Mission St&Highland Ave SW-FS/BZ,37.73706,-122.4242,14,10..20
15598,5598,Mission St&Italy Ave W-MB/BZ,37.71915,-122.43909,175,100..200
15599,5599,Mission St&Italy Ave E-FS/BZ,37.71865,-122.43926,71,50..100
15600,5600,Mission St&Lawrence Ave N-NS/BZ,37.7095,-122.45087,13,10..20
15601,5601,Mission St&Lowell St E-FS/BZ,37.71147,-122.44629,308,200..500
15602,5602,Mission St&Lowell St W-FS/BZ,37.71143,-122.44649,318,200..500
15603,5603,Mission St&Main St N-NS,37.79197,-122.39493,301,200..500
15604,5604,Mission St&Mt Vernon Ave N-NS/BZ,37.7147,-122.44265,32,20..50
15605,5605,Mission St&Murray St NE-FS/BZ,37.73404,-122.42592,42,20..50
15608,5608,Mission St&Oliver St E-FS/BZ,37.70962,-122.45006,47,20..50
15609,5609,Mission St&Onondaga Ave N-NS/BZ,37.72128,-122.43748,125,100..200
15610,5610,Mission St&Persia Ave E-FS/BZ,37.72338,-122.43568,689,500..1000
15613,5613,Mission St&Richland Ave SE-NS/BZ,37.73591,-122.42442,140,100..200
15614,5614,Mission St&Richland Ave SW-FS/BZ,37.73562,-122.4247,82,50..100
15615,5615,Mission St&Russia Ave S-NS/BZ,37.72147,-122.43712,181,100..200
15616,5616,Mission St&Ruth St W-FS/BZ,37.72281,-122.43633,423,200..500
15619,5619,Mission St&Sickles Ave W-FS/BZ,37.70866,-122.45332,34,20..50
15620,5620,Mission St&Silver Ave S-NS/BZ,37.72872,-122.43132,344,200..500
15621,5621,Mission St&Silver Ave W-FS/BZ,37.72872,-122.43135,255,200..500
15623,5623,Mission St&Spear St OB W-FS/BZ,37.79239,-122.39435,37,20..50
15624,5624,Mission St&Trumbull St SE-NS/BZ,37.73066,-122.42927,103,100..200
15625,5625,Mission St&Trumbull St W-FS/BZ,37.73045,-122.42971,99,50..100
15626,5626,Mission St&Valencia St W-FS/BB,37.74508,-122.4203,67,50..100
15627,5627,Mission St&Whittier St N-NS/BZ,37.71048,-122.44834,26,20..50
15628,5628,Mission St&Whittier St S-NS/BZ,37.71022,-122.44845,80,50..100
15630,5630,Munich St&Cordova Ave NW-FS/PS,37.71094,-122.43544,6,5..10
15631,5631,Munich St&Geneva Ave W-NS/SB,37.71293,-122.43295,62,50..100
15632,5632,Munich St&Naples St NE-NS/PS,37.71116,-122.43824,10,10..20
15633,5633,Galvez Ave&Robinson Ave S-NS/BZ,37.7288,-122.36703,23,20..50
15638,5638,Market St&1st St S-NS/BZ,37.7909,-122.39914,15,10..20
15639,5639,Market St&2nd St N-NS/SI,37.78935,-122.40131,154,100..200
15640,5640,Market St&3rd St S-NS/SI,37.78753,-122.40352,40,20..50
15641,5641,Market St&3rd St E-FS/BZ,37.78767,-122.40336,25,20..50
15642,5642,Market between 4th & 3rd St SE-MB/BZ,37.7866,-122.40459,31,20..50
15643,5643,Market St&4th St S-NS/SI,37.78571,-122.40585,108,100..200
15644,5644,Market between 5th & 4th St SE-MB/BZ,37.78484,-122.40683,43,20..50
15645,5645,Market St&5th St S-NS/SI,37.78389,-122.40814,109,100..200
15646,5646,Market between 5th & 6th St SE-MB/BZ,37.7834,-122.40866,15,10..20
15647,5647,Market St&6th St S-NS/SI,37.7821,-122.4104,112,100..200
15648,5648,Market between 6th & 7th SE-MB/BZ,37.78129,-122.41133,51,50..100
15649,5649,Market St bet 7th & 8th St SE-MB/BZ,37.77981,-122.41319,17,10..20
15650,5650,Market St&7th St S-NS/SI,37.78036,-122.41261,247,200..500
15651,5651,Market St&8th St S-NS/SI,37.77861,-122.41483,105,100..200
15652,5652,Market St&9th St S-NS/SI,37.77741,-122.41634,122,100..200
15653,5653,Market St&15th St W-FS/BZ,37.76569,-122.4314,,
15654,5654,Market St&16th St W-FS/BZ,37.76391,-122.43366,11,10..20
15655,5655,Market St&5th St North N-NS/SI,37.78408,-122.40799,379,200..500
15656,5656,Market St&7th St North N-NS/SI,37.78057,-122.41244,196,100..200
15657,5657,Market St&Battery St N-NS/SI,37.79111,-122.39907,115,100..200
15658,5658,Market St&Beale St E-FS/BZ,37.79257,-122.39702,33,20..50
15659,5659,Market St&Buchanan St N-NS/SI,37.76979,-122.42615,15,10..20
15661,5661,Market St&Church St N-NS/SI,37.7674,-122.42931,136,100..200
15663,5663,Market St&Clayton St N-FS/BZ,37.75841,-122.44406,10,10..20
15665,5665,Market St&Castro St S-NS/SB,37.76246,-122.43545,164,100..200
15667,5667,Market St&Castro St W-FS/SB,37.76302,-122.43498,62,50..100
15668,5668,Market St&Dolores St S-NS/SI,37.76888,-122.4271,178,100..200
15669,5669,Market St&Drumm St N-NS/BZ,37.79347,-122.39618,253,200..500
15672,5672,Market St&Gough St N-NS/SI,37.77327,-122.42177,37,20..50
15673,5673,Market St&Gough St S-NS/SI,37.77288,-122.42199,87,50..100
15674,5674,Market St&Grant Ave W-FS/BZ,37.78639,-122.40516,194,100..200
15675,5675,Market St&Guerrero St S-NS/SI,37.77057,-122.42497,59,50..100
15676,5676,Market St&Hyde St N-NS/SI,37.77911,-122.41438,290,200..500
15678,5678,Market St&Kearny St N-NS/SI,37.78773,-122.40337,137,100..200
15680,5680,Market St&Larkin St N-NS/SI,37.7776,-122.41624,103,100..200
15681,5681,Market St&Laguna St N-NS/SI,37.77095,-122.42467,22,20..50
15683,5683,Market St&Mason St W-FS/BZ,37.78285,-122.40964,77,50..100
15684,5684,Market St&Montgomery St W-FS/BZ,37.78849,-122.40248,255,200..500
15685,5685,Market St&New Montgomery St NS/SI  ,37.78861,-122.40216,27,20..50
15687,5687,Market St&Noe St S-NS/SI,37.76396,-122.43332,67,50..100
15688,5688,Market St&Powell St N-NS/BZ,37.78447,-122.40754,320,200..500
15689,5689,Market St&Sansome St W-FS/BZ,37.79001,-122.40049,189,100..200
15690,5690,Market St&Sanchez St N-NS/SI,37.76619,-122.43071,14,10..20
15691,5691,Market St&Sanchez St S-NS/PS,37.76569,-122.43114,32,20..50
15692,5692,Market St & South Van Ness Ave S-N/SI ,37.77506,-122.41932,205,200..500
15693,5693,Market St&Steuart St S-NS/SB,37.79426,-122.39491,28,20..50
15694,5694,Market St&Stockton St N-NS/SI,37.78578,-122.40586,359,200..500
15695,5695,Market St&Taylor St N-NS/SI,37.78232,-122.41023,126,100..200
15696,5696,Market St&Van Ness Ave N-NS/SI,37.7752,-122.41925,286,200..500
15698,5698,Moscow St&Brazil Ave N-NS,37.72136,-122.42762,8,5..10
15699,5699,Moscow St&Excelsior Ave N-NS,37.7229,-122.42647,3,2..5
15700,5700,Moscow St&France Ave N-NS,37.71669,-122.43113,6,5..10
15702,5702,Moscow St&Italy Ave N-NS,37.71513,-122.4323,3,2..5
15703,5703,Moscow St&Persia Ave N-NS,37.71982,-122.42876,4,2..5
15705,5705,Masonic Ave&Fulton St SW-FS/SI,37.77558,-122.44655,43,20..50
15706,5706,Masonic Ave&Fulton St SE-NS/RC,37.77571,-122.44636,51,50..100
15709,5709,Masonic Ave&Geary Blvd SE-NS/RC,37.78213,-122.44728,11,10..20
15710,5710,Masonic Ave&Geary Blvd SW-FS/SI,37.78214,-122.44757,200,200..500
15711,5711,Masonic Ave&Haight St SW-FS/BZ,37.77015,-122.44538,,
15712,5712,Masonic Ave&Haight St NW-NS/PS,37.77031,-122.44542,21,20..50
15713,5713,Masonic Ave&Haight St NE-FS/BZ,37.77035,-122.4453,55,50..100
15714,5714,Masonic Ave&Hayes St NE-FS/RC,37.77406,-122.44605,10,10..20
15715,5715,Masonic Ave&Hayes St NW-NS/RC,37.77402,-122.44624,14,10..20
15716,5716,Masonic Ave&Oak St SE-NS/BZ,37.77196,-122.44563,9,5..10
15717,5717,Masonic Ave&Oak St SW-FS/BZ,37.77173,-122.44573,13,10..20
15718,5718,Masonic Ave&Turk St NE-FS/SI,37.77877,-122.447,2,2..5
15719,5719,Masonic Ave&Turk St NW-NS/RC,37.77876,-122.44716,9,5..10
15732,5732,Noe St&27th St NW-NS/PS,37.74668,-122.43148,6,5..10
15733,5733,Noe St&27th St SE-NS/PS,37.74654,-122.43132,5,5..10
15734,5734,Noe St&28th St NW-NS/PS,37.74519,-122.43134,3,2..5
15735,5735,Noe St&28th St SE-NS/PS,37.74493,-122.43117,5,5..10
15736,5736,Noe St&29th St NW-FS/PS,37.74331,-122.43118,5,5..10
15737,5737,Noe St&29th St SE-NS/PS,37.7433,-122.43104,10,10..20
15738,5738,Noe St&30th St NW-NS/PS,37.74201,-122.43101,10,10..20
15741,5741,Noriega St&25th Ave NE-NS/BZ,37.75404,-122.48277,21,20..50
15742,5742,Noriega St&25th Ave SW-NS/BZ,37.75388,-122.48301,33,20..50
15744,5744,Noriega St&27th Ave SW-NS/BZ,37.75378,-122.48517,21,20..50
15745,5745,Noriega St&28th Ave NE-NS/BZ,37.7539,-122.48599,9,5..10
15746,5746,Noriega St&29th Ave SW-NS/BZ,37.75369,-122.48731,31,20..50
15747,5747,Noriega St&31st Ave NE-NS/BZ,37.75375,-122.4892,54,50..100
15748,5748,Noriega St&31st Ave SW-NS/BZ,37.75359,-122.48945,103,100..200
15751,5751,Noriega St&34th Ave NE-NS/BZ,37.75362,-122.49243,11,10..20
15752,5752,Noriega St&34th Ave SW-NS/BZ,37.75346,-122.49265,28,20..50
15753,5753,Noriega St&38th Ave NE-NS/SB,37.75343,-122.49672,2,2..5
15754,5754,Noriega St&39th Ave SW-NS/BZ,37.75322,-122.49801,29,20..50
15755,5755,Noriega St&40th Ave NE-NS/BZ,37.75333,-122.49885,3,2..5
15756,5756,Noriega St&41st Ave SW-NS/BZ,37.75313,-122.50017,65,50..100
15757,5757,Noriega St&42nd Ave NE-NS/BZ,37.75324,-122.501,3,2..5
15758,5758,Noriega St&43rd Ave SW-NS/BZ,37.75303,-122.50231,53,50..100
15759,5759,Noriega St&44th Ave NW-FS/BZ,37.75316,-122.50309,2,2..5
